[
  {
    "id": "0002",
    "name": "Farmacia 002",
    "address": "Bilbao N° 4144 Local 200, Jumbo Bilbao",
    "city": "Las Condes",
    "region": "Región Metropolitana",
    "country": "CL",
    "phone": "232740431",
    "latitude": -33.430564,
    "longitude": -70.578897,
    "hours": "<p>Lunes a Viernes: 08:00 - 21:00<br>\n            Sábado: 08:00 - 21:00<br>\n            Domingo: 09:00 - 19:00</p>",
    "is_24hrs": false,
    "has_parking": true
  },
  {
    "id": "0008",
    "name": "Farmacia 008",
    "address": "Kennedy N° 9001 Local 1072 / Alto Las Condes",
    "city": "Las Condes",
    "region": "Región Metropolitana",
    "country": "CL",
    "phone": "232740500",
    "latitude": -33.389042,
    "longitude": -70.545571,
    "hours": "<p>Lunes a Viernes: 08:30 - 21:00<br>\n            Sábado: 08:30 - 21:00<br>\n            Domingo: 09:00 - 19:00</p>",
    "is_24hrs": false,
    "has_parking": true
  },
  {
    "id": "0009",
    "name": "Farmacia 009",
    "address": "Juan Moya N° 1310 / Av. Grecia ",
    "city": "Ñuñoa",
    "region": "Región Metropolitana",
    "country": "CL",
    "phone": "232740507",
    "latitude": -33.4669605,
    "longitude": -70.5886236,
    "hours": "<p>Lunes a Viernes: 09:00 - 21:00<br>\n            Sábado: 09:00 - 21:00<br>\n            Domingo: CERRADO</p>",
    "is_24hrs": true,
    "has_parking": true
  },
  {
    "id": "0011",
    "name": "Farmacia 011",
    "address": "Kennedy N° 5413 Local 230 / Parque Arauco",
    "city": "Las Condes",
    "region": "Región Metropolitana",
    "country": "CL",
    "phone": "232740384",
    "latitude": -33.40214,
    "longitude": -70.578192,
    "hours": "<p>Lunes a Viernes: 10:00 - 20:30<br>\n            Sábado: 10:00 - 21:00<br>\n            Domingo: 11:00 - 19:00</p>",
    "is_24hrs": false,
    "has_parking": true
  },
  {
    "id": "0013",
    "name": "Farmacia 013",
    "address": "Teatinos N° 4 / Alameda",
    "city": "Santiago",
    "region": "Región Metropolitana",
    "country": "CL",
    "phone": "232740392",
    "latitude": -33.444262,
    "longitude": -70.654213,
    "hours": "<p>Lunes a Viernes: 08:30 - 20:30<br>\n            Sábado: 09:00 - 14:00<br>\n            Domingo: CERRADO</p>",
    "is_24hrs": false,
    "has_parking": false
  },
  {
    "id": "0014",
    "name": "Farmacia 014",
    "address": "Vicuña Mackenna nº 7110 L. 109-110 / Mall Plaza Vespucio",
    "city": "La Florida",
    "region": "Región Metropolitana",
    "country": "CL",
    "phone": "232740402",
    "latitude": -33.518039,
    "longitude": -70.59768,
    "hours": "<p>Lunes a Viernes: 09:00 - 20:00<br>\n            Sábado: 09:00 - 20:00<br>\n            Domingo: 09:00 - 20:00</p>",
    "is_24hrs": false,
    "has_parking": true
  },
  {
    "id": "0015",
    "name": "Farmacia 015",
    "address": "Irarrázaval N° 4221 / Juan Moya",
    "city": "Ñuñoa",
    "region": "Región Metropolitana",
    "country": "CL",
    "phone": "232740407",
    "latitude": -33.455672,
    "longitude": -70.58563,
    "hours": "<p>Lunes a Viernes: 08:00 - 23:59<br>\n            Sábado: 08:00 - 23:59<br>\n            Domingo: 00:00 - 23:59</p>",
    "is_24hrs": true,
    "has_parking": true
  },
  {
    "id": "0017",
    "name": "Farmacia 017",
    "address": "Huérfanos N° 896 / Estado",
    "city": "Santiago",
    "region": "Región Metropolitana",
    "country": "CL",
    "phone": "222222222",
    "latitude": -33.439571,
    "longitude": -70.649428,
    "hours": "<p>Lunes a Viernes: CERRADO<br>\n            Sábado: CERRADO<br>\n            Domingo: CERRADO</p>",
    "is_24hrs": false,
    "has_parking": false
  },
  {
    "id": "0021",
    "name": "Farmacia 021",
    "address": "Santa María Manquehue N° 6938 ",
    "city": "Vitacura",
    "region": "Región Metropolitana",
    "country": "CL",
    "phone": "232740440",
    "latitude": -33.376789,
    "longitude": -70.569207,
    "hours": "<p>Lunes a Viernes: 08:30 - 21:00<br>\n            Sábado: 09:00 - 19:30<br>\n            Domingo: 10:00 - 19:00</p>",
    "is_24hrs": false,
    "has_parking": true
  },
  {
    "id": "0024",
    "name": "Farmacia 024",
    "address": "Manquehue Sur N° 31 Local 232,194,196 / Apumanque",
    "city": "Las Condes",
    "region": "Región Metropolitana",
    "country": "CL",
    "phone": "232740463",
    "latitude": -33.409538,
    "longitude": -70.567074,
    "hours": "<p>Lunes a Viernes: 10:00 - 20:00<br>\n            Sábado: 10:00 - 20:00<br>\n            Domingo: 11:00 - 19:00</p>",
    "is_24hrs": false,
    "has_parking": true
  },
  {
    "id": "0026",
    "name": "Farmacia 026",
    "address": "Ramón Freire N° 1790 Maipu / Mall Espacio Urbano",
    "city": "Maipú",
    "region": "Región Metropolitana",
    "country": "CL",
    "phone": "232740467",
    "latitude": -33.510422,
    "longitude": -70.75735,
    "hours": "<p>Lunes a Viernes: 08:30 - 20:30<br>\n            Sábado: 08:30 - 20:30<br>\n            Domingo: 08:30 - 19:00</p>",
    "is_24hrs": false,
    "has_parking": true
  },
  {
    "id": "0027",
    "name": "B027-R13-STGO/HUÉRFANOS 763",
    "address": "Huérfanos N° 763 / San Antonio",
    "city": "Santiago",
    "region": "Región Metropolitana de Santiago",
    "country": "CL",
    "phone": null,
    "latitude": -33.439249,
    "longitude": -70.647669,
    "hours": "mon - fri: 08am - 05pm sat: CERRADO sun: CERRADO",
    "is_24hrs": false,
    "has_parking": false
  },
  {
    "id": "0032",
    "name": "Farmacia 032",
    "address": "Luis Carrera N° 2215 / Candelaria Goyenechea",
    "city": "Vitacura",
    "region": "Región Metropolitana",
    "country": "CL",
    "phone": "232740471",
    "latitude": -33.390025,
    "longitude": -70.586908,
    "hours": "<p>Lunes a Viernes: 09:00 - 19:00<br>\n            Sábado: CERRADO<br>\n            Domingo: CERRADO</p>",
    "is_24hrs": false,
    "has_parking": true
  },
  {
    "id": "0033",
    "name": "Farmacia 033",
    "address": "Av. El Bosque N° 164 / Lota",
    "city": "Providencia",
    "region": "Región Metropolitana",
    "country": "CL",
    "phone": "232740472",
    "latitude": -33.421762,
    "longitude": -70.598359,
    "hours": "<p>Lunes a Viernes: 08:00 - 21:00<br>\n            Sábado: 08:00 - 21:00<br>\n            Domingo: 09:00 - 19:00</p>",
    "is_24hrs": false,
    "has_parking": true
  },
  {
    "id": "0034",
    "name": "Farmacia 034",
    "address": "Av.Isabel La Católica nº 6072 / Manquehue Sur",
    "city": "Las Condes",
    "region": "Región Metropolitana",
    "country": "CL",
    "phone": "232740473",
    "latitude": -33.425266,
    "longitude": -70.564506,
    "hours": "<p>Lunes a Viernes: 09:00 - 21:00<br>\n            Sábado: 10:00 - 18:00<br>\n            Domingo: CERRADO</p>",
    "is_24hrs": false,
    "has_parking": true
  },
  {
    "id": "0035",
    "name": "Farmacia 035",
    "address": "Av.Larraín nº 6637",
    "city": "La Reina",
    "region": "Región Metropolitana",
    "country": "CL",
    "phone": "232740474",
    "latitude": -33.452495,
    "longitude": -70.562264,
    "hours": "<p>Lunes a Viernes: 09:00 - 21:00<br>\n            Sábado: 09:00 - 21:00<br>\n            Domingo: 10:00 - 19:00</p>",
    "is_24hrs": false,
    "has_parking": true
  },
  {
    "id": "0037",
    "name": "Farmacia 037",
    "address": "Arturo Prat nº 589 / San Bernardo",
    "city": "San Bernardo",
    "region": "Región Metropolitana",
    "country": "CL",
    "phone": "232740475",
    "latitude": -33.592574,
    "longitude": -70.704929,
    "hours": "<p>Lunes a Viernes: 09:00 - 20:00<br>\n            Sábado: 09:00 - 19:00<br>\n            Domingo: CERRADO</p>",
    "is_24hrs": false,
    "has_parking": false
  },
  {
    "id": "0043",
    "name": "Farmacia 043",
    "address": "Av. Providencia nº 2499 / Holanda",
    "city": "Providencia",
    "region": "Región Metropolitana",
    "country": "CL",
    "phone": "232740477",
    "latitude": -33.419281,
    "longitude": -70.604303,
    "hours": "<p>Lunes a Viernes: 09:00 - 20:00<br>\n            Sábado: 09:00 - 16:00<br>\n            Domingo: CERRADO</p>",
    "is_24hrs": false,
    "has_parking": false
  },
  {
    "id": "0055",
    "name": "Farmacia 055",
    "address": "Carlos Antúnez N°2490/ Shell Holanda ",
    "city": "Providencia",
    "region": "Región Metropolitana",
    "country": "CL",
    "phone": "232740479",
    "latitude": -33.426678,
    "longitude": -70.601642,
    "hours": "<p>Lunes a Viernes: 09:30 - 20:00<br>\n            Sábado: CERRADO<br>\n            Domingo: CERRADO</p>",
    "is_24hrs": false,
    "has_parking": true
  },
  {
    "id": "0056",
    "name": "Farmacia 056",
    "address": "Av. Salvador nº 89 L.3",
    "city": "Providencia",
    "region": "Región Metropolitana",
    "country": "CL",
    "phone": "232740480",
    "latitude": -33.434468,
    "longitude": -70.62649,
    "hours": "<p>Lunes a Viernes: 08:00 - 17:00<br>\n            Sábado: CERRADO<br>\n            Domingo: CERRADO</p>",
    "is_24hrs": false,
    "has_parking": false
  },
  {
    "id": "0058",
    "name": "Farmacia 058",
    "address": "Av. Cristobal Colón nº 5090 ",
    "city": "Las Condes",
    "region": "Región Metropolitana",
    "country": "CL",
    "phone": "232740481",
    "latitude": -33.418359,
    "longitude": -70.572074,
    "hours": "<p>Lunes a Viernes: 08:00 - 23:59<br>\n            Sábado: 08:00 - 23:59<br>\n            Domingo: 00:00 - 23:59</p>",
    "is_24hrs": true,
    "has_parking": true
  },
  {
    "id": "0064",
    "name": "Farmacia 064",
    "address": "Av. Américo Vespucio Nº 1001, Local 1029 / Jumbo Maipu",
    "city": "Maipú",
    "region": "Región Metropolitana",
    "country": "CL",
    "phone": "232740491",
    "latitude": -33.481201,
    "longitude": -70.753992,
    "hours": "<p>Lunes a Viernes: 08:30 - 21:00<br>\n            Sábado: 08:30 - 21:00<br>\n            Domingo: 09:00 - 19:00</p>",
    "is_24hrs": false,
    "has_parking": true
  },
  {
    "id": "0067",
    "name": "Farmacia 067",
    "address": "Nueva Providencia 1313",
    "city": "Providencia",
    "region": "Región Metropolitana",
    "country": "CL",
    "phone": "232740492",
    "latitude": -33.429651,
    "longitude": -70.619559,
    "hours": "<p>Lunes a Viernes: 08:00 - 21:00<br>\n            Sábado: 09:00 - 21:00<br>\n            Domingo: CERRADO</p>",
    "is_24hrs": false,
    "has_parking": false
  },
  {
    "id": "0069",
    "name": "Farmacia 069",
    "address": "Paseo Ahumada 226",
    "city": "Santiago",
    "region": "Región Metropolitana",
    "country": "CL",
    "phone": "232740494",
    "latitude": -33.44043,
    "longitude": -70.651016,
    "hours": "<p>Lunes a Viernes: 09:00 - 20:30<br>\n            Sábado: 10:00 - 18:00<br>\n            Domingo: 11:00 - 17:00</p>",
    "is_24hrs": false,
    "has_parking": false
  },
  {
    "id": "0070",
    "name": "Farmacia 070",
    "address": "Plaza de Armas 535 Melipilla",
    "city": "Melipilla",
    "region": "Región Metropolitana",
    "country": "CL",
    "phone": "232740495",
    "latitude": -33.686193,
    "longitude": -71.214581,
    "hours": "<p>Lunes a Viernes: 10:00 - 20:00<br>\n            Sábado: 10:00 - 14:00<br>\n            Domingo: CERRADO</p>",
    "is_24hrs": false,
    "has_parking": false
  },
  {
    "id": "0073",
    "name": "Farmacia 073",
    "address": "Av. Apoquindo N° 4831",
    "city": "Las Condes",
    "region": "Región Metropolitana",
    "country": "CL",
    "phone": "232740496",
    "latitude": -33.412278,
    "longitude": -70.57921,
    "hours": "<p>Lunes a Viernes: 09:00 - 21:00<br>\n            Sábado: 10:00 - 17:00<br>\n            Domingo: 10:00 - 19:00</p>",
    "is_24hrs": false,
    "has_parking": true
  },
  {
    "id": "0076",
    "name": "Farmacia 076",
    "address": "Av. Concha y Toro N°1149, Local 56-57 Mall Puente Alto",
    "city": "Puente Alto",
    "region": "Región Metropolitana",
    "country": "CL",
    "phone": "232740498",
    "latitude": -33.598642,
    "longitude": -70.577502,
    "hours": "<p>Lunes a Viernes: 10:00 - 20:30<br>\n            Sábado: 10:00 - 20:30<br>\n            Domingo: 10:00 - 19:00</p>",
    "is_24hrs": false,
    "has_parking": true
  },
  {
    "id": "0077",
    "name": "Farmacia 077",
    "address": "Bilbao 3785 / Shell",
    "city": "Providencia",
    "region": "Región Metropolitana",
    "country": "CL",
    "phone": "232740499",
    "latitude": -33.431889,
    "longitude": -70.584458,
    "hours": "<p>Lunes a Viernes: 09:00 - 21:30<br>\n            Sábado: 09:00 - 21:30<br>\n            Domingo: 10:00 - 19:00</p>",
    "is_24hrs": false,
    "has_parking": true
  },
  {
    "id": "0080",
    "name": "Farmacia 080",
    "address": "Av. Sucre 3250 (Al Interior del Supermercado Unimarc)",
    "city": "Ñuñoa",
    "region": "Región Metropolitana",
    "country": "CL",
    "phone": "232740501",
    "latitude": -33.44840836118,
    "longitude": -70.59809212284,
    "hours": "<p>Lunes a Viernes: 09:00 - 20:00<br>\n            Sábado: 09:00 - 20:00<br>\n            Domingo: 09:00 - 19:00</p>",
    "is_24hrs": false,
    "has_parking": true
  },
  {
    "id": "0081",
    "name": "Farmacia 081",
    "address": "Av. Ramón Freire N° 2340 (Av. Los Pajaritos) ",
    "city": "Maipú",
    "region": "Región Metropolitana",
    "country": "CL",
    "phone": "232740502",
    "latitude": -33.505743,
    "longitude": -70.757414,
    "hours": "<p>Lunes a Viernes: 08:00 - 23:59<br>\n            Sábado: 08:00 - 23:59<br>\n            Domingo: 00:00 - 23:59</p>",
    "is_24hrs": true,
    "has_parking": true
  },
  {
    "id": "0084",
    "name": "Farmacia 084",
    "address": "Príncipe de Gales N° 7230",
    "city": "La Reina",
    "region": "Región Metropolitana",
    "country": "CL",
    "phone": "232740503",
    "latitude": -33.438627,
    "longitude": -70.556983,
    "hours": "<p>Lunes a Viernes: 09:00 - 20:30<br>\n            Sábado: 09:00 - 20:30<br>\n            Domingo: CERRADO</p>",
    "is_24hrs": false,
    "has_parking": true
  },
  {
    "id": "0086",
    "name": "Farmacia 086",
    "address": "San Martín N°174, Buin (supermercado Tottus)",
    "city": "Buin",
    "region": "Región Metropolitana",
    "country": "CL",
    "phone": "232740505",
    "latitude": -33.731353,
    "longitude": -70.73616,
    "hours": "<p>Lunes a Viernes: 08:30 - 21:30<br>\n            Sábado: 08:30 - 21:30<br>\n            Domingo: 09:00 - 19:00</p>",
    "is_24hrs": false,
    "has_parking": true
  },
  {
    "id": "0089",
    "name": "Farmacia 089",
    "address": "Ruta 68 Km. 18,5 Lo Aguirre / Shell",
    "city": "Pudahuel",
    "region": "Región Metropolitana",
    "country": "CL",
    "phone": "232740506",
    "latitude": -33.440251,
    "longitude": -70.841475,
    "hours": "<p>Lunes a Viernes: 09:00 - 21:00<br>\n            Sábado: 09:00 - 21:00<br>\n            Domingo: 09:00 - 19:00</p>",
    "is_24hrs": false,
    "has_parking": true
  },
  {
    "id": "0091",
    "name": "Farmacia 091",
    "address": "Luis Pasteur N°5875/ Lo Arcaya",
    "city": "Vitacura",
    "region": "Región Metropolitana",
    "country": "CL",
    "phone": "232740508",
    "latitude": -33.388769,
    "longitude": -70.577645,
    "hours": "<p>Lunes a Viernes: 09:00 - 21:30<br>\n            Sábado: 09:00 - 21:30<br>\n            Domingo: 10:00 - 19:00</p>",
    "is_24hrs": false,
    "has_parking": true
  },
  {
    "id": "0092",
    "name": "Farmacia 092",
    "address": "Carretera General San Martín n°68 L.3 y 4 (Monserrat)",
    "city": "Colina",
    "region": "Región Metropolitana",
    "country": "CL",
    "phone": "232740509",
    "latitude": -33.20568170398,
    "longitude": -70.67861953174,
    "hours": "<p>Lunes a Viernes: 08:30 - 19:30<br>\n            Sábado: 08:30 - 19:30<br>\n            Domingo: 09:00 - 19:00</p>",
    "is_24hrs": false,
    "has_parking": true
  },
  {
    "id": "0098",
    "name": "Farmacia 098",
    "address": "Av. Pedro de Valdivia Nº 2523 / Diagonal Oriente",
    "city": "Ñuñoa",
    "region": "Región Metropolitana",
    "country": "CL",
    "phone": "232740512",
    "latitude": -33.445599,
    "longitude": -70.60615,
    "hours": "<p>Lunes a Viernes: 08:00 - 21:30<br>\n            Sábado: 10:00 - 21:30<br>\n            Domingo: 11:00 - 19:00</p>",
    "is_24hrs": false,
    "has_parking": true
  },
  {
    "id": "0111",
    "name": "Farmacia 111",
    "address": "Vivar nº 723",
    "city": "Iquique",
    "region": "Tarapacá",
    "country": "CL",
    "phone": "232740385",
    "latitude": -20.214953,
    "longitude": -70.148604,
    "hours": "<p>Lunes a Viernes: 09:00 - 19:00<br>\n            Sábado: 10:00 - 19:00<br>\n            Domingo: CERRADO</p>",
    "is_24hrs": false,
    "has_parking": false
  },
  {
    "id": "0112",
    "name": "Farmacia 112",
    "address": "21 de Mayo 359",
    "city": "Arica",
    "region": "Arica y Parinacota",
    "country": "CL",
    "phone": "232740386",
    "latitude": -18.478591,
    "longitude": -70.318358,
    "hours": "<p>Lunes a Viernes: 09:00 - 20:00<br>\n            Sábado: 10:00 - 19:00<br>\n            Domingo: CERRADO</p>",
    "is_24hrs": false,
    "has_parking": false
  },
  {
    "id": "0120",
    "name": "Farmacia 120",
    "address": "Latorre N°1979",
    "city": "Calama",
    "region": "Antofagasta",
    "country": "CL",
    "phone": "232740387",
    "latitude": -22.460848,
    "longitude": -68.925822,
    "hours": "<p>Lunes a Viernes: 09:00 - 20:00<br>\n            Sábado: 10:00 - 16:00<br>\n            Domingo: CERRADO</p>",
    "is_24hrs": false,
    "has_parking": false
  },
  {
    "id": "0121",
    "name": "Farmacia 121",
    "address": "Arturo Prat Nº 605",
    "city": "Antofagasta",
    "region": "Antofagasta",
    "country": "CL",
    "phone": "232740388",
    "latitude": -23.64878,
    "longitude": -70.396485,
    "hours": "<p>Lunes a Viernes: 09:00 - 19:00<br>\n            Sábado: 09:00 - 19:00<br>\n            Domingo: 09:00 - 17:00</p>",
    "is_24hrs": false,
    "has_parking": false
  },
  {
    "id": "0122",
    "name": "Farmacia 122",
    "address": "Maipú N° 689 ",
    "city": "Antofagasta",
    "region": "Antofagasta",
    "country": "CL",
    "phone": "232740389",
    "latitude": -23.650947,
    "longitude": -70.39755,
    "hours": "<p>Lunes a Viernes: 10:00 - 18:00<br>\n            Sábado: 10:00 - 18:00<br>\n            Domingo: CERRADO</p>",
    "is_24hrs": false,
    "has_parking": false
  },
  {
    "id": "0123",
    "name": "Farmacia 123",
    "address": "Av. Argentina N° 1105 / Shell Antofagasta",
    "city": "Antofagasta",
    "region": "Antofagasta",
    "country": "CL",
    "phone": "232740390",
    "latitude": -23.665063,
    "longitude": -70.398653,
    "hours": "<p>Lunes a Viernes: 09:00 - 20:00<br>\n            Sábado: 09:00 - 20:00<br>\n            Domingo: 10:00 - 19:00</p>",
    "is_24hrs": false,
    "has_parking": true
  },
  {
    "id": "0124",
    "name": "Farmacia 124",
    "address": "Zenteno N° 21 Local 1, Megamercado Líder",
    "city": "Antofagasta",
    "region": "Antofagasta",
    "country": "CL",
    "phone": "232740391",
    "latitude": -23.63789,
    "longitude": -70.395885,
    "hours": "<p>Lunes a Viernes: 09:00 - 21:00<br>\n            Sábado: 09:00 - 21:00<br>\n            Domingo: 09:00 - 19:00</p>",
    "is_24hrs": false,
    "has_parking": true
  },
  {
    "id": "0131",
    "name": "Farmacia 131",
    "address": "OHiggins nº 561",
    "city": "Copiapó",
    "region": "Atacama",
    "country": "CL",
    "phone": "232740394",
    "latitude": -27.366193,
    "longitude": -70.333443,
    "hours": "<p>Lunes a Viernes: 09:00 - 20:30<br>\n            Sábado: 09:00 - 20:30<br>\n            Domingo: 10:00 - 19:00</p>",
    "is_24hrs": false,
    "has_parking": false
  },
  {
    "id": "0132",
    "name": "Farmacia 132",
    "address": "Prat 1100",
    "city": "Vallenar",
    "region": "Atacama",
    "country": "CL",
    "phone": "232740395",
    "latitude": -28.577116,
    "longitude": -70.758541,
    "hours": "<p>Lunes a Viernes: 09:00 - 21:00<br>\n            Sábado: 09:00 - 21:00<br>\n            Domingo: 09:00 - 19:00</p>",
    "is_24hrs": false,
    "has_parking": false
  },
  {
    "id": "0134",
    "name": "Farmacia 134",
    "address": "Cordovez 631-651",
    "city": "La Serena",
    "region": "Coquimbo",
    "country": "CL",
    "phone": "232740397",
    "latitude": -29.903154,
    "longitude": -71.247969,
    "hours": "<p>Lunes a Viernes: 09:00 - 18:00<br>\n            Sábado: 09:00 - 18:00<br>\n            Domingo: CERRADO</p>",
    "is_24hrs": false,
    "has_parking": false
  },
  {
    "id": "0136",
    "name": "Farmacia 136",
    "address": "Av. Vicuña Mackenna N° 72 y 90",
    "city": "Ovalle",
    "region": "Coquimbo",
    "country": "CL",
    "phone": "232740398",
    "latitude": -30.602421,
    "longitude": -71.198723,
    "hours": "<p>Lunes a Viernes: 09:00 - 20:00<br>\n            Sábado: 09:00 - 18:00<br>\n            Domingo: CERRADO</p>",
    "is_24hrs": false,
    "has_parking": false
  },
  {
    "id": "0137",
    "name": "Farmacia 137",
    "address": "Balmaceda N° 3463 / Cuatro Esquina (En la Shell)",
    "city": "La Serena",
    "region": "Coquimbo",
    "country": "CL",
    "phone": "232740399",
    "latitude": -29.93289606661,
    "longitude": -71.26010317323,
    "hours": "<p>Lunes a Viernes: 09:00 - 20:00<br>\n            Sábado: 09:00 - 20:00<br>\n            Domingo: 10:00 - 19:00</p>",
    "is_24hrs": false,
    "has_parking": true
  },
  {
    "id": "0139",
    "name": "Farmacia 139",
    "address": "Av. Alessandri N° 531 / Supermercado Unimarc",
    "city": "Coquimbo",
    "region": "Coquimbo",
    "country": "CL",
    "phone": "222222222",
    "latitude": -29.96133,
    "longitude": -71.264362,
    "hours": "<p>Lunes a Viernes: CERRADO<br>\n            Sábado: CERRADO<br>\n            Domingo: CERRADO</p>",
    "is_24hrs": false,
    "has_parking": true
  },
  {
    "id": "0141",
    "name": "Farmacia 141",
    "address": "Av. Valparaíso N°505/ Etchevers",
    "city": "Viña del Mar",
    "region": "Valparaíso",
    "country": "CL",
    "phone": "232740403",
    "latitude": -33.024353,
    "longitude": -71.55565,
    "hours": "<p>Lunes a Viernes: 08:30 - 20:30<br>\n            Sábado: 09:00 - 20:00<br>\n            Domingo: CERRADO</p>",
    "is_24hrs": false,
    "has_parking": false
  },
  {
    "id": "0145",
    "name": "Farmacia 145",
    "address": "Av. Libertad N°335",
    "city": "Viña del Mar",
    "region": "Valparaíso",
    "country": "CL",
    "phone": "232740404",
    "latitude": -33.01901,
    "longitude": -71.55123,
    "hours": "<p>Lunes a Viernes: 08:00 - 23:59<br>\n            Sábado: 08:00 - 23:59<br>\n            Domingo: 00:00 - 23:59</p>",
    "is_24hrs": true,
    "has_parking": true
  },
  {
    "id": "0146",
    "name": "Farmacia 146",
    "address": "Alvarez nº 1398",
    "city": "Viña del Mar",
    "region": "Valparaíso",
    "country": "CL",
    "phone": "232740405",
    "latitude": -33.02859,
    "longitude": -71.543462,
    "hours": "<p>Lunes a Viernes: 08:30 - 21:00<br>\n            Sábado: 09:00 - 20:00<br>\n            Domingo: CERRADO</p>",
    "is_24hrs": false,
    "has_parking": false
  },
  {
    "id": "0149",
    "name": "Farmacia 149",
    "address": "Arturo Prat Nº 798",
    "city": "San Felipe",
    "region": "Valparaíso",
    "country": "CL",
    "phone": "232740406",
    "latitude": -32.749953,
    "longitude": -70.725614,
    "hours": "<p>Lunes a Viernes: 09:00 - 21:00<br>\n            Sábado: 09:00 - 21:00<br>\n            Domingo: 09:00 - 19:00</p>",
    "is_24hrs": false,
    "has_parking": false
  },
  {
    "id": "0153",
    "name": "Farmacia 153",
    "address": "Rafael Sotomayor nº 230, Reñaca Bajo / Supermercado SISA",
    "city": "Reñaca",
    "region": "Valparaíso",
    "country": "CL",
    "phone": "232740409",
    "latitude": -32.970679,
    "longitude": -71.542711,
    "hours": "<p>Lunes a Viernes: 09:00 - 20:30<br>\n            Sábado: 09:00 - 20:00<br>\n            Domingo: 10:00 - 19:00</p>",
    "is_24hrs": false,
    "has_parking": true
  },
  {
    "id": "0159",
    "name": "Farmacia 159",
    "address": "Av.Valparaíso nº 702",
    "city": "Villa Alemana",
    "region": "Valparaíso",
    "country": "CL",
    "phone": "232740413",
    "latitude": -33.044276,
    "longitude": -71.373968,
    "hours": "<p>Lunes a Viernes: 09:00 - 20:30<br>\n            Sábado: 09:00 - 20:30<br>\n            Domingo: 10:00 - 19:00</p>",
    "is_24hrs": false,
    "has_parking": false
  },
  {
    "id": "0162",
    "name": "Farmacia 162",
    "address": "Carr. El Cobre pdte. Frei N° 750 local 102 (Jumbo)",
    "city": "Rancagua",
    "region": "OHiggins",
    "country": "CL",
    "phone": "232740415",
    "latitude": -34.184684,
    "longitude": -70.725045,
    "hours": "<p>Lunes a Viernes: 09:00 - 20:30<br>\n            Sábado: 09:00 - 20:30<br>\n            Domingo: 10:00 - 19:00</p>",
    "is_24hrs": false,
    "has_parking": true
  },
  {
    "id": "0163",
    "name": "Farmacia 163",
    "address": "Manuel Rodriguez N° 902",
    "city": "San Fernando",
    "region": "OHiggins",
    "country": "CL",
    "phone": "232740416",
    "latitude": -34.588081,
    "longitude": -70.985194,
    "hours": "<p>Lunes a Viernes: 09:00 - 21:00<br>\n            Sábado: 10:00 - 21:00<br>\n            Domingo: 11:00 - 19:00</p>",
    "is_24hrs": false,
    "has_parking": false
  },
  {
    "id": "0170",
    "name": "Farmacia 170",
    "address": "1 Sur nº 1399",
    "city": "Talca",
    "region": "Maule",
    "country": "CL",
    "phone": "232740418",
    "latitude": -35.427742,
    "longitude": -71.657161,
    "hours": "<p>Lunes a Viernes: 09:00 - 20:00<br>\n            Sábado: 10:00 - 18:00<br>\n            Domingo: 10:00 - 18:00</p>",
    "is_24hrs": false,
    "has_parking": false
  },
  {
    "id": "0171",
    "name": "Farmacia 171",
    "address": "Independencia nº 535",
    "city": "Linares",
    "region": "Maule",
    "country": "CL",
    "phone": "232740419",
    "latitude": -35.846522,
    "longitude": -71.595954,
    "hours": "<p>Lunes a Viernes: 10:00 - 19:00<br>\n            Sábado: 10:00 - 14:00<br>\n            Domingo: CERRADO</p>",
    "is_24hrs": false,
    "has_parking": false
  },
  {
    "id": "0172",
    "name": "Farmacia 172",
    "address": "Peña nº 724",
    "city": "Curicó",
    "region": "Maule",
    "country": "CL",
    "phone": "232740420",
    "latitude": -34.983425,
    "longitude": -71.241634,
    "hours": "<p>Lunes a Viernes: 09:00 - 20:00<br>\n            Sábado: 09:00 - 20:00<br>\n            Domingo: 10:00 - 18:00</p>",
    "is_24hrs": false,
    "has_parking": false
  },
  {
    "id": "0183",
    "name": "Farmacia 183",
    "address": "5 de Abril nº 702",
    "city": "Chillán",
    "region": "Ñuble",
    "country": "CL",
    "phone": "232740422",
    "latitude": -36.609103,
    "longitude": -72.101866,
    "hours": "<p>Lunes a Viernes: 09:00 - 20:30<br>\n            Sábado: 09:00 - 20:30<br>\n            Domingo: 10:00 - 19:00</p>",
    "is_24hrs": false,
    "has_parking": false
  },
  {
    "id": "0187",
    "name": "Farmacia 187",
    "address": "Avenida 21 de Mayo N° 3225, Local 1 y 2, Concepcion / Supermercado SISA",
    "city": "Concepción",
    "region": "Bío Bío",
    "country": "CL",
    "phone": "232740423",
    "latitude": -36.808529,
    "longitude": -73.076806,
    "hours": "<p>Lunes a Viernes: 09:00 - 19:00<br>\n            Sábado: 09:00 - 19:00<br>\n            Domingo: 09:00 - 16:00</p>",
    "is_24hrs": false,
    "has_parking": true
  },
  {
    "id": "0191",
    "name": "Farmacia 191",
    "address": "Av. Colón N° 8961 / Nueva Imperial",
    "city": "Hualpén",
    "region": "Bío Bío",
    "country": "CL",
    "phone": "232740425",
    "latitude": -36.800299,
    "longitude": -73.084681,
    "hours": "<p>Lunes a Viernes: 09:00 - 21:00<br>\n            Sábado: 09:00 - 21:00<br>\n            Domingo: 10:00 - 19:00</p>",
    "is_24hrs": false,
    "has_parking": true
  },
  {
    "id": "0194",
    "name": "Farmacia 194",
    "address": "Av. Ramón Picarte 310 / Camilo Henriquez",
    "city": "Valdivia",
    "region": "Los Ríos",
    "country": "CL",
    "phone": "232740428",
    "latitude": -39.814008,
    "longitude": -73.245335,
    "hours": "<p>Lunes a Viernes: 09:00 - 20:30<br>\n            Sábado: 09:00 - 20:00<br>\n            Domingo: 10:00 - 20:00</p>",
    "is_24hrs": false,
    "has_parking": false
  },
  {
    "id": "0195",
    "name": "Farmacia 195",
    "address": "Juan Bosco N° 501 ",
    "city": "Concepción",
    "region": "Bío Bío",
    "country": "CL",
    "phone": "232740429",
    "latitude": -36.815624,
    "longitude": -73.031831,
    "hours": "<p>Lunes a Viernes: 08:00 - 23:59<br>\n            Sábado: 08:00 - 23:59<br>\n            Domingo: 00:00 - 23:59</p>",
    "is_24hrs": true,
    "has_parking": true
  },
  {
    "id": "0201",
    "name": "Farmacia 201",
    "address": "Av. Vicuña Mackenna N° 9521",
    "city": "La Florida",
    "region": "Región Metropolitana",
    "country": "CL",
    "phone": "232740433",
    "latitude": -33.54376,
    "longitude": -70.58953,
    "hours": "<p>Lunes a Viernes: 09:00 - 21:00<br>\n            Sábado: 09:00 - 21:00<br>\n            Domingo: 09:00 - 19:00</p>",
    "is_24hrs": false,
    "has_parking": true
  },
  {
    "id": "0203",
    "name": "Farmacia 203",
    "address": "Av. Francisco Bilbao 2489 / Holanda",
    "city": "Providencia",
    "region": "Región Metropolitana",
    "country": "CL",
    "phone": "232740435",
    "latitude": -33.436724,
    "longitude": -70.598963,
    "hours": "<p>Lunes a Viernes: 09:00 - 21:00<br>\n            Sábado: 09:00 - 20:00<br>\n            Domingo: 10:00 - 19:00</p>",
    "is_24hrs": false,
    "has_parking": false
  },
  {
    "id": "0205",
    "name": "Farmacia 205",
    "address": "Av. Francisco Bilbao 7391 ",
    "city": "La Reina",
    "region": "Región Metropolitana",
    "country": "CL",
    "phone": "232740437",
    "latitude": -33.430755,
    "longitude": -70.554859,
    "hours": "<p>Lunes a Viernes: 08:00 - 23:59<br>\n            Sábado: 08:00 - 23:59<br>\n            Domingo: 00:00 - 23:59</p>",
    "is_24hrs": true,
    "has_parking": true
  },
  {
    "id": "0209",
    "name": "Farmacia 209",
    "address": "Manuel Montt 901 / Bulnes",
    "city": "Temuco",
    "region": "Araucanía",
    "country": "CL",
    "phone": "232740438",
    "latitude": -38.738478,
    "longitude": -72.588902,
    "hours": "<p>Lunes a Viernes: 09:00 - 19:30<br>\n            Sábado: 09:00 - 19:00<br>\n            Domingo: CERRADO</p>",
    "is_24hrs": false,
    "has_parking": false
  },
  {
    "id": "0212",
    "name": "Farmacia 212",
    "address": "San Damián N° 20 ",
    "city": "Las Condes",
    "region": "Región Metropolitana",
    "country": "CL",
    "phone": "232740441",
    "latitude": -33.376372,
    "longitude": -70.525559,
    "hours": "<p>Lunes a Viernes: 08:00 - 23:59<br>\n            Sábado: 08:00 - 23:59<br>\n            Domingo: 00:00 - 23:59</p>",
    "is_24hrs": true,
    "has_parking": true
  },
  {
    "id": "0213",
    "name": "Farmacia 213",
    "address": "Eleuterio Ramirez 981",
    "city": "Osorno",
    "region": "Los Lagos",
    "country": "CL",
    "phone": "232740442",
    "latitude": -40.573353,
    "longitude": -73.133367,
    "hours": "<p>Lunes a Viernes: 09:00 - 20:00<br>\n            Sábado: 10:00 - 20:00<br>\n            Domingo: 11:00 - 19:00</p>",
    "is_24hrs": false,
    "has_parking": false
  },
  {
    "id": "0219",
    "name": "Farmacia 219",
    "address": "Diego Portales N° 802 Loc. 3 Mall Plaza El Sol",
    "city": "Quilpué",
    "region": "Valparaíso",
    "country": "CL",
    "phone": "232740447",
    "latitude": -33.046884,
    "longitude": -71.441774,
    "hours": "<p>Lunes a Viernes: 08:30 - 21:00<br>\n            Sábado: 08:30 - 21:00<br>\n            Domingo: 09:00 - 19:00</p>",
    "is_24hrs": false,
    "has_parking": true
  },
  {
    "id": "0221",
    "name": "Farmacia 221",
    "address": "Juan Soler Manfredini N°51 / Mall Puerto Montt",
    "city": "Puerto Montt",
    "region": "Los Lagos",
    "country": "CL",
    "phone": "232740449",
    "latitude": -41.4731132,
    "longitude": -72.9367108,
    "hours": "<p>Lunes a Viernes: 10:00 - 21:00<br>\n            Sábado: 10:00 - 21:00<br>\n            Domingo: 11:00 - 19:00</p>",
    "is_24hrs": false,
    "has_parking": true
  },
  {
    "id": "0226",
    "name": "Farmacia 226",
    "address": "Av. Valparaiso 720",
    "city": "Viña del Mar",
    "region": "Valparaíso",
    "country": "CL",
    "phone": "232740451",
    "latitude": -33.024929,
    "longitude": -71.547861,
    "hours": "<p>Lunes a Viernes: CERRADO<br>\n            Sábado: CERRADO<br>\n            Domingo: CERRADO</p>",
    "is_24hrs": false,
    "has_parking": false
  },
  {
    "id": "0231",
    "name": "Farmacia 231",
    "address": "Camilo Henriquez N°555",
    "city": "Villarrica",
    "region": "Araucanía",
    "country": "CL",
    "phone": "232740454",
    "latitude": -39.28236,
    "longitude": -72.227941,
    "hours": "<p>Lunes a Viernes: 09:00 - 21:00<br>\n            Sábado: 09:00 - 21:00<br>\n            Domingo: 10:00 - 19:00</p>",
    "is_24hrs": false,
    "has_parking": false
  },
  {
    "id": "0232",
    "name": "Farmacia 232",
    "address": "Alberto Solari N°1400, Local 158 y 162 / Mall La Serena",
    "city": "La Serena",
    "region": "Coquimbo",
    "country": "CL",
    "phone": "232740455",
    "latitude": -29.91104,
    "longitude": -71.258183,
    "hours": "<p>Lunes a Viernes: 10:00 - 20:30<br>\n            Sábado: 10:00 - 20:30<br>\n            Domingo: 10:00 - 19:00</p>",
    "is_24hrs": false,
    "has_parking": true
  },
  {
    "id": "0233",
    "name": "Farmacia 233",
    "address": "Bories 950",
    "city": "Punta Arenas",
    "region": "Magallanes y la Antártica Chilena",
    "country": "CL",
    "phone": "232740456",
    "latitude": -53.158634,
    "longitude": -70.905311,
    "hours": "<p>Lunes a Viernes: 09:00 - 21:30<br>\n            Sábado: 10:00 - 21:00<br>\n            Domingo: 11:00 - 19:00</p>",
    "is_24hrs": false,
    "has_parking": false
  },
  {
    "id": "0235",
    "name": "Farmacia 235",
    "address": "Pedro de Valdivia N°1010, Local 2 / Supermercado Jumbo",
    "city": "Concepción",
    "region": "Bío Bío",
    "country": "CL",
    "phone": "232740458",
    "latitude": -36.846624,
    "longitude": -73.051593,
    "hours": "<p>Lunes a Viernes: 09:00 - 20:00<br>\n            Sábado: 09:00 - 20:00<br>\n            Domingo: 09:00 - 19:00</p>",
    "is_24hrs": false,
    "has_parking": true
  },
  {
    "id": "0236",
    "name": "Farmacia 236",
    "address": "Rafael Casanova Nº 104",
    "city": "Santa Cruz",
    "region": "OHiggins",
    "country": "CL",
    "phone": "232740459",
    "latitude": -34.640711,
    "longitude": -71.366318,
    "hours": "<p>Lunes a Viernes: 09:00 - 21:00<br>\n            Sábado: 10:00 - 18:00<br>\n            Domingo: CERRADO</p>",
    "is_24hrs": false,
    "has_parking": false
  },
  {
    "id": "0237",
    "name": "Farmacia 237",
    "address": "Av. Vicuña Mackenna N° 6100 L. 102 (Jumbo La Florida)",
    "city": "La Florida",
    "region": "Región Metropolitana",
    "country": "CL",
    "phone": "232740460",
    "latitude": -33.510976,
    "longitude": -70.606974,
    "hours": "<p>Lunes a Viernes: 08:00 - 21:00<br>\n            Sábado: 08:00 - 21:00<br>\n            Domingo: 09:00 - 19:00</p>",
    "is_24hrs": false,
    "has_parking": true
  },
  {
    "id": "0238",
    "name": "Farmacia 238",
    "address": "1 Norte 2901 local 4060-4064 Jumbo Portal de Viña",
    "city": "Viña del Mar",
    "region": "Valparaíso",
    "country": "CL",
    "phone": "232740461",
    "latitude": -33.035588,
    "longitude": -71.524558,
    "hours": "<p>Lunes a Viernes: 08:30 - 21:00<br>\n            Sábado: 08:30 - 21:00<br>\n            Domingo: 09:00 - 19:00</p>",
    "is_24hrs": false,
    "has_parking": true
  },
  {
    "id": "0239",
    "name": "Farmacia 239",
    "address": "Avda. Francisco Bilbao N°8750 (Jumbo Padre Hurtado)",
    "city": "Las Condes",
    "region": "Región Metropolitana",
    "country": "CL",
    "phone": "232740462",
    "latitude": -33.428227,
    "longitude": -70.540391,
    "hours": "<p>Lunes a Viernes: 08:30 - 20:30<br>\n            Sábado: 08:30 - 20:30<br>\n            Domingo: 09:00 - 19:00</p>",
    "is_24hrs": false,
    "has_parking": true
  },
  {
    "id": "0240",
    "name": "Farmacia 240",
    "address": "Barros Arana nº 724 - 734",
    "city": "Concepción",
    "region": "Bío Bío",
    "country": "CL",
    "phone": "232740464",
    "latitude": -36.826222,
    "longitude": -73.049426,
    "hours": "<p>Lunes a Viernes: 08:30 - 21:00<br>\n            Sábado: 09:00 - 19:00<br>\n            Domingo: 10:00 - 18:00</p>",
    "is_24hrs": false,
    "has_parking": true
  },
  {
    "id": "0241",
    "name": "Farmacia 241",
    "address": "Avda. España 01405-A",
    "city": "Punta Arenas",
    "region": "Magallanes y la Antártica Chilena",
    "country": "CL",
    "phone": "232740465",
    "latitude": -53.138224,
    "longitude": -70.891171,
    "hours": "<p>Lunes a Viernes: 09:00 - 21:00<br>\n            Sábado: 10:00 - 21:00<br>\n            Domingo: 10:00 - 19:00</p>",
    "is_24hrs": false,
    "has_parking": false
  },
  {
    "id": "0243",
    "name": "Farmacia 243",
    "address": "Avda. El Rodeo N° 12.850, Local 45 al 47 / Mall La Dehesa",
    "city": "Lo Barnechea",
    "region": "Región Metropolitana",
    "country": "CL",
    "phone": "232740466",
    "latitude": -33.352717,
    "longitude": -70.52058,
    "hours": "<p>Lunes a Viernes: 09:00 - 20:30<br>\n            Sábado: 09:00 - 20:30<br>\n            Domingo: 09:30 - 19:00</p>",
    "is_24hrs": false,
    "has_parking": true
  },
  {
    "id": "0258",
    "name": "Farmacia 258",
    "address": "Mall Calama (Av. Balmaceda N° 3242 / Loc. 116)",
    "city": "Calama",
    "region": "Antofagasta",
    "country": "CL",
    "phone": "232740514",
    "latitude": -22.448605,
    "longitude": -68.920487,
    "hours": "<p>Lunes a Viernes: 10:00 - 20:00<br>\n            Sábado: 10:00 - 20:00<br>\n            Domingo: 10:00 - 19:00</p>",
    "is_24hrs": false,
    "has_parking": true
  },
  {
    "id": "0267",
    "name": "Farmacia 267",
    "address": "Tarapacá 599 / Ramirez",
    "city": "Iquique",
    "region": "Tarapacá",
    "country": "CL",
    "phone": "232740517",
    "latitude": -20.213908,
    "longitude": -70.149357,
    "hours": "<p>Lunes a Viernes: 09:30 - 18:00<br>\n            Sábado: 10:00 - 15:00<br>\n            Domingo: CERRADO</p>",
    "is_24hrs": false,
    "has_parking": true
  },
  {
    "id": "0271",
    "name": "Farmacia 271",
    "address": "Los Álamos N°580 (Supermercado Unimarc)",
    "city": "Coquimbo",
    "region": "Coquimbo",
    "country": "CL",
    "phone": "232740518",
    "latitude": -29.987947,
    "longitude": -71.336739,
    "hours": "<p>Lunes a Viernes: 09:00 - 20:00<br>\n            Sábado: 09:00 - 20:00<br>\n            Domingo: 09:30 - 19:00</p>",
    "is_24hrs": false,
    "has_parking": true
  },
  {
    "id": "0272",
    "name": "Farmacia 272",
    "address": "Los Leones N° 1160 ",
    "city": "Providencia",
    "region": "Región Metropolitana",
    "country": "CL",
    "phone": "232740519",
    "latitude": -33.43008,
    "longitude": -70.602525,
    "hours": "<p>Lunes a Viernes: 08:00 - 23:59<br>\n            Sábado: 08:00 - 23:59<br>\n            Domingo: 00:00 - 23:59</p>",
    "is_24hrs": true,
    "has_parking": true
  },
  {
    "id": "0274",
    "name": "Farmacia 274",
    "address": "Condell n°100 / Supermercado Tottus",
    "city": "Rengo",
    "region": "OHiggins",
    "country": "CL",
    "phone": "232740521",
    "latitude": -34.409485,
    "longitude": -70.860931,
    "hours": "<p>Lunes a Viernes: 09:00 - 20:00<br>\n            Sábado: 09:00 - 20:00<br>\n            Domingo: 09:00 - 19:00</p>",
    "is_24hrs": false,
    "has_parking": true
  },
  {
    "id": "0276",
    "name": "Farmacia 276",
    "address": "Av. Pdte. Jorge Alessandri Rodriguez 3177",
    "city": "Talcahuano",
    "region": "Bío Bío",
    "country": "CL",
    "phone": "232740522",
    "latitude": -36.791792,
    "longitude": -73.066474,
    "hours": "<p>Lunes a Viernes: 10:00 - 20:00<br>\n            Sábado: 10:00 - 21:00<br>\n            Domingo: 10:00 - 19:00</p>",
    "is_24hrs": false,
    "has_parking": true
  },
  {
    "id": "0280",
    "name": "Farmacia 280",
    "address": "Michimalonco N°1120, locales 1 y 2 ",
    "city": "San Pedro de la Paz",
    "region": "Bío Bío",
    "country": "CL",
    "phone": "232740523",
    "latitude": -36.84296,
    "longitude": -73.094125,
    "hours": "<p>Lunes a Viernes: 08:00 - 23:59<br>\n            Sábado: 08:00 - 23:59<br>\n            Domingo: 00:00 - 23:59</p>",
    "is_24hrs": true,
    "has_parking": true
  },
  {
    "id": "0281",
    "name": "Farmacia 281",
    "address": "Calle Quillota 441 / Supermercado SISA",
    "city": "Viña del Mar",
    "region": "Valparaíso",
    "country": "CL",
    "phone": "232740524",
    "latitude": -33.018272,
    "longitude": -71.546665,
    "hours": "<p>Lunes a Viernes: 08:30 - 21:00<br>\n            Sábado: 09:00 - 21:00<br>\n            Domingo: 09:00 - 19:00</p>",
    "is_24hrs": false,
    "has_parking": true
  },
  {
    "id": "0282",
    "name": "Farmacia 282",
    "address": "Providencia 2001 / P. De Valdivia",
    "city": "Providencia",
    "region": "Región Metropolitana",
    "country": "CL",
    "phone": "232740525",
    "latitude": -33.423598,
    "longitude": -70.612586,
    "hours": "<p>Lunes a Viernes: 08:30 - 19:30<br>\n            Sábado: 10:00 - 15:00<br>\n            Domingo: CERRADO</p>",
    "is_24hrs": false,
    "has_parking": false
  },
  {
    "id": "0283",
    "name": "Farmacia 283",
    "address": "Enrique Foster N°39",
    "city": "Las Condes",
    "region": "Región Metropolitana",
    "country": "CL",
    "phone": "232740526",
    "latitude": -33.416398,
    "longitude": -70.594132,
    "hours": "<p>Lunes a Viernes: 08:00 - 21:00<br>\n            Sábado: 10:00 - 14:00<br>\n            Domingo: CERRADO</p>",
    "is_24hrs": false,
    "has_parking": false
  },
  {
    "id": "0284",
    "name": "Farmacia 284",
    "address": "Av. Macul N°2555 / Gregorio de la Fuente ",
    "city": "Macul",
    "region": "Región Metropolitana",
    "country": "CL",
    "phone": "232740777",
    "latitude": -33.478043,
    "longitude": -70.59901,
    "hours": "<p>Lunes a Viernes: 08:00 - 23:59<br>\n            Sábado: 08:00 - 23:59<br>\n            Domingo: 00:00 - 23:59</p>",
    "is_24hrs": true,
    "has_parking": true
  },
  {
    "id": "0285",
    "name": "Farmacia 285",
    "address": "Av. La Dehesa 457",
    "city": "Lo Barnechea",
    "region": "Región Metropolitana",
    "country": "CL",
    "phone": "232740527",
    "latitude": -33.362237,
    "longitude": -70.515214,
    "hours": "<p>Lunes a Viernes: 08:00 - 21:00<br>\n            Sábado: 09:00 - 21:00<br>\n            Domingo: 09:00 - 19:00</p>",
    "is_24hrs": false,
    "has_parking": true
  },
  {
    "id": "0288",
    "name": "Farmacia 288",
    "address": "Avda. José Miguel Carrera 5919",
    "city": "San Miguel",
    "region": "Región Metropolitana",
    "country": "CL",
    "phone": "232740529",
    "latitude": -33.508767,
    "longitude": -70.65681,
    "hours": "<p>Lunes a Viernes: 08:30 - 21:00<br>\n            Sábado: 08:30 - 21:00<br>\n            Domingo: 09:00 - 19:00</p>",
    "is_24hrs": false,
    "has_parking": true
  },
  {
    "id": "0289",
    "name": "Farmacia 289",
    "address": "Barros Arana  501 ",
    "city": "Concepción",
    "region": "Bío Bío",
    "country": "CL",
    "phone": "232740530",
    "latitude": -36.827167,
    "longitude": -73.052366,
    "hours": "<p>Lunes a Viernes: 08:30 - 20:30<br>\n            Sábado: 09:00 - 19:00<br>\n            Domingo: CERRADO</p>",
    "is_24hrs": false,
    "has_parking": false
  },
  {
    "id": "0290",
    "name": "Farmacia 290",
    "address": "Av. Vicuña Mackenna N° 6100, Piso 1, local N° 1023 (Florida Center)",
    "city": "La Florida",
    "region": "Región Metropolitana",
    "country": "CL",
    "phone": "232740533",
    "latitude": -33.510976,
    "longitude": -70.606974,
    "hours": "<p>Lunes a Viernes: 10:00 - 20:30<br>\n            Sábado: 10:00 - 20:30<br>\n            Domingo: 10:00 - 19:00</p>",
    "is_24hrs": false,
    "has_parking": true
  },
  {
    "id": "0292",
    "name": "Farmacia 292",
    "address": "Av. La Florida 9497. La Florida",
    "city": "La Florida",
    "region": "Región Metropolitana",
    "country": "CL",
    "phone": "232740534",
    "latitude": -33.543344,
    "longitude": -70.570614,
    "hours": "<p>Lunes a Viernes: 08:00 - 23:59<br>\n            Sábado: 08:00 - 23:59<br>\n            Domingo: 00:00 - 23:59</p>",
    "is_24hrs": true,
    "has_parking": true
  },
  {
    "id": "0296",
    "name": "Farmacia 296",
    "address": "Pio XI N° 1615",
    "city": "Vitacura",
    "region": "Región Metropolitana",
    "country": "CL",
    "phone": "232740535",
    "latitude": -33.397231,
    "longitude": -70.58291,
    "hours": "<p>Lunes a Viernes: 09:00 - 21:00<br>\n            Sábado: 10:00 - 21:00<br>\n            Domingo: CERRADO</p>",
    "is_24hrs": false,
    "has_parking": true
  },
  {
    "id": "0297",
    "name": "Farmacia 297",
    "address": "Gran Avenida N° 7406 (Esq. Fernandez Albano y Gran Avenida) ",
    "city": "La Cisterna",
    "region": "Región Metropolitana",
    "country": "CL",
    "phone": "232740536",
    "latitude": -33.523794,
    "longitude": -70.660415,
    "hours": "<p>Lunes a Viernes: 08:00 - 23:59<br>\n            Sábado: 08:00 - 23:59<br>\n            Domingo: 00:00 - 23:59</p>",
    "is_24hrs": true,
    "has_parking": true
  },
  {
    "id": "0300",
    "name": "Farmacia 300",
    "address": "Av. Los Trapenses 3515 / Paseo los Trapenses",
    "city": "Lo Barnechea",
    "region": "Región Metropolitana",
    "country": "CL",
    "phone": "232740539",
    "latitude": -33.343999,
    "longitude": -70.544468,
    "hours": "<p>Lunes a Viernes: 08:00 - 21:00<br>\n            Sábado: 09:00 - 21:00<br>\n            Domingo: 10:00 - 19:00</p>",
    "is_24hrs": false,
    "has_parking": true
  },
  {
    "id": "0304",
    "name": "Farmacia 304",
    "address": " San Martin 321 (Castro)",
    "city": "Castro",
    "region": "Los Lagos",
    "country": "CL",
    "phone": "232740560",
    "latitude": -42.482542,
    "longitude": -73.763645,
    "hours": "<p>Lunes a Viernes: 09:00 - 21:00<br>\n            Sábado: 10:00 - 20:00<br>\n            Domingo: 12:00 - 19:00</p>",
    "is_24hrs": false,
    "has_parking": false
  },
  {
    "id": "0306",
    "name": "Farmacia 306",
    "address": "Calle Brasil 751 (La Serena) / Supermercado Unimarc",
    "city": "La Serena",
    "region": "Coquimbo",
    "country": "CL",
    "phone": "232740574",
    "latitude": -29.901117,
    "longitude": -71.246037,
    "hours": "<p>Lunes a Viernes: 09:00 - 19:00<br>\n            Sábado: 10:00 - 19:00<br>\n            Domingo: CERRADO</p>",
    "is_24hrs": false,
    "has_parking": true
  },
  {
    "id": "0312",
    "name": "Farmacia 312",
    "address": "Esmeralda #723, La Unión",
    "city": "La Unión",
    "region": "Los Ríos",
    "country": "CL",
    "phone": "232740542",
    "latitude": -40.296777,
    "longitude": -73.080368,
    "hours": "<p>Lunes a Viernes: 09:00 - 19:00<br>\n            Sábado: 09:00 - 19:00<br>\n            Domingo: CERRADO</p>",
    "is_24hrs": false,
    "has_parking": false
  },
  {
    "id": "0313",
    "name": "Farmacia 313",
    "address": "Longitudinal Sur 134, Local 1003 / Supermercado Jumbo",
    "city": "Chillán",
    "region": "Ñuble",
    "country": "CL",
    "phone": "232740344",
    "latitude": -36.591239,
    "longitude": -72.103829,
    "hours": "<p>Lunes a Viernes: 08:30 - 20:30<br>\n            Sábado: 08:30 - 20:30<br>\n            Domingo: 09:00 - 19:00</p>",
    "is_24hrs": false,
    "has_parking": true
  },
  {
    "id": "0316",
    "name": "Farmacia 316",
    "address": "Av. Campos de deportes N° 156, Ñuñoa",
    "city": "Ñuñoa",
    "region": "Región Metropolitana",
    "country": "CL",
    "phone": "232740544",
    "latitude": -33.455015,
    "longitude": -70.609115,
    "hours": "<p>Lunes a Viernes: 08:00 - 21:30<br>\n            Sábado: 09:00 - 21:30<br>\n            Domingo: 10:00 - 19:00</p>",
    "is_24hrs": false,
    "has_parking": true
  },
  {
    "id": "0317",
    "name": "Farmacia 317",
    "address": "Avda. Americo Vespucio Norte 2515 esq. Fco. De Aguirre, Vitacura",
    "city": "Vitacura",
    "region": "Región Metropolitana",
    "country": "CL",
    "phone": "232740545",
    "latitude": -33.392118,
    "longitude": -70.592531,
    "hours": "<p>Lunes a Viernes: 08:00 - 21:00<br>\n            Sábado: 09:00 - 21:00<br>\n            Domingo: 09:00 - 19:00</p>",
    "is_24hrs": false,
    "has_parking": true
  },
  {
    "id": "0318",
    "name": "Farmacia 318",
    "address": "Victoria N°501 local 1",
    "city": "Cauquenes",
    "region": "Maule",
    "country": "CL",
    "phone": "232740546",
    "latitude": -35.967658,
    "longitude": -72.316288,
    "hours": "<p>Lunes a Viernes: 09:00 - 20:00<br>\n            Sábado: 09:00 - 14:00<br>\n            Domingo: CERRADO</p>",
    "is_24hrs": false,
    "has_parking": true
  },
  {
    "id": "0320",
    "name": "Farmacia 320",
    "address": "Avda. Alemania 0671, piso 2, Local N° 2086 / Mall Portal Temuco",
    "city": "Temuco",
    "region": "Araucanía",
    "country": "CL",
    "phone": "232740547",
    "latitude": -38.734435,
    "longitude": -72.611368,
    "hours": "<p>Lunes a Viernes: 10:00 - 20:30<br>\n            Sábado: 10:00 - 20:30<br>\n            Domingo: 10:00 - 19:00</p>",
    "is_24hrs": false,
    "has_parking": true
  },
  {
    "id": "0323",
    "name": "Farmacia 323",
    "address": "Pudeto 289 - 295",
    "city": "Ancud",
    "region": "Los Lagos",
    "country": "CL",
    "phone": "232740549",
    "latitude": -41.868842,
    "longitude": -73.826215,
    "hours": "<p>Lunes a Viernes: 09:00 - 20:00<br>\n            Sábado: 09:00 - 20:00<br>\n            Domingo: CERRADO</p>",
    "is_24hrs": false,
    "has_parking": false
  },
  {
    "id": "0326",
    "name": "Farmacia 326",
    "address": "Emilia Tellez N° 5593 / Av. Ossa, Ñuñoa",
    "city": "Ñuñoa",
    "region": "Región Metropolitana",
    "country": "CL",
    "phone": "232740551",
    "latitude": -33.441474,
    "longitude": -70.57289,
    "hours": "<p>Lunes a Viernes: 09:00 - 20:00<br>\n            Sábado: 09:00 - 20:00<br>\n            Domingo: CERRADO</p>",
    "is_24hrs": false,
    "has_parking": true
  },
  {
    "id": "0328",
    "name": "Farmacia 328",
    "address": "Av. Simón Bolivar N° 3756, Ñuñoa",
    "city": "Ñuñoa",
    "region": "Región Metropolitana",
    "country": "CL",
    "phone": "232740552",
    "latitude": -33.448388,
    "longitude": -70.591144,
    "hours": "<p>Lunes a Viernes: 09:00 - 20:00<br>\n            Sábado: 09:00 - 20:00<br>\n            Domingo: CERRADO</p>",
    "is_24hrs": false,
    "has_parking": true
  },
  {
    "id": "0330",
    "name": "Farmacia 330",
    "address": "Bilbao N° 317, Coyhaique",
    "city": "Coyhaique",
    "region": "Aysén",
    "country": "CL",
    "phone": "232740353",
    "latitude": -45.57189,
    "longitude": -72.070806,
    "hours": "<p>Lunes a Viernes: 09:00 - 19:30<br>\n            Sábado: 10:00 - 18:00<br>\n            Domingo: 10:00 - 18:00</p>",
    "is_24hrs": false,
    "has_parking": false
  },
  {
    "id": "0331",
    "name": "Farmacia 331",
    "address": "Lautaro Nº 84, Angol",
    "city": "Angol",
    "region": "Araucanía",
    "country": "CL",
    "phone": "232740553",
    "latitude": -37.798033,
    "longitude": -72.706605,
    "hours": "<p>Lunes a Viernes: 10:00 - 19:00<br>\n            Sábado: 10:00 - 15:00<br>\n            Domingo: CERRADO</p>",
    "is_24hrs": false,
    "has_parking": false
  },
  {
    "id": "0334",
    "name": "Farmacia 334",
    "address": "Arturo Prat 2404 , Esquina Esmeralda",
    "city": "San Javier",
    "region": "Maule",
    "country": "CL",
    "phone": "232740555",
    "latitude": -35.595015,
    "longitude": -71.731267,
    "hours": "<p>Lunes a Viernes: 10:00 - 19:00<br>\n            Sábado: 10:00 - 14:00<br>\n            Domingo: CERRADO</p>",
    "is_24hrs": false,
    "has_parking": false
  },
  {
    "id": "0336",
    "name": "Farmacia 336",
    "address": "Gran Avenida N° 5001, San Miguel",
    "city": "San Miguel",
    "region": "Región Metropolitana",
    "country": "CL",
    "phone": "232740556",
    "latitude": -33.499642,
    "longitude": -70.654192,
    "hours": "<p>Lunes a Viernes: 08:00 - 21:00<br>\n            Sábado: 08:00 - 21:00<br>\n            Domingo: 09:00 - 19:00</p>",
    "is_24hrs": false,
    "has_parking": true
  },
  {
    "id": "0337",
    "name": "Farmacia 337",
    "address": "Los Militares N° 6872, local 9, Las Condes",
    "city": "Las Condes",
    "region": "Región Metropolitana",
    "country": "CL",
    "phone": "232740557",
    "latitude": -33.401549,
    "longitude": -70.560465,
    "hours": "<p>Lunes a Viernes: 08:30 - 21:30<br>\n            Sábado: 09:00 - 21:30<br>\n            Domingo: 09:00 - 19:00</p>",
    "is_24hrs": false,
    "has_parking": true
  },
  {
    "id": "0339",
    "name": "Farmacia 339",
    "address": "Av. Concha y Toro N° 26 ; Mall Plaza Puente, Puente Alto",
    "city": "Puente Alto",
    "region": "Región Metropolitana",
    "country": "CL",
    "phone": "232740559",
    "latitude": -33.611957,
    "longitude": -70.5757,
    "hours": "<p>Lunes a Viernes: 10:00 - 20:00<br>\n            Sábado: 10:00 - 20:00<br>\n            Domingo: CERRADO</p>",
    "is_24hrs": false,
    "has_parking": true
  },
  {
    "id": "0340",
    "name": "Farmacia 340",
    "address": "Ohiggins 412",
    "city": "Pucón",
    "region": "Araucanía",
    "country": "CL",
    "phone": "232740561",
    "latitude": -39.275626,
    "longitude": -71.975279,
    "hours": "<p>Lunes a Viernes: 09:00 - 20:00<br>\n            Sábado: 09:00 - 20:00<br>\n            Domingo: CERRADO</p>",
    "is_24hrs": false,
    "has_parking": false
  },
  {
    "id": "0343",
    "name": "Farmacia 343",
    "address": "Camino Chicureo Esq. Los Ingleses Local 1, Chicureo",
    "city": "Colina",
    "region": "Región Metropolitana",
    "country": "CL",
    "phone": "232740478",
    "latitude": -33.2852262,
    "longitude": -70.6806659,
    "hours": "<p>Lunes a Viernes: 08:00 - 23:59<br>\n            Sábado: 08:00 - 23:59<br>\n            Domingo: 00:00 - 23:59</p>",
    "is_24hrs": true,
    "has_parking": true
  },
  {
    "id": "0346",
    "name": "Farmacia 346",
    "address": "Av. Angamos 745 int. Jumbo Antofagasta",
    "city": "Antofagasta",
    "region": "Antofagasta",
    "country": "CL",
    "phone": "232740564",
    "latitude": -23.667687,
    "longitude": -70.404618,
    "hours": "<p>Lunes a Viernes: 08:00 - 21:00<br>\n            Sábado: 08:00 - 21:00<br>\n            Domingo: 08:00 - 21:00</p>",
    "is_24hrs": false,
    "has_parking": true
  },
  {
    "id": "0347",
    "name": "Farmacia 347",
    "address": "Av. Consistorial N°3349, Local 1, Peñalolén",
    "city": "Peñalolén",
    "region": "Región Metropolitana",
    "country": "CL",
    "phone": "232740565",
    "latitude": -33.488639,
    "longitude": -70.549894,
    "hours": "<p>Lunes a Viernes: 08:30 - 20:00<br>\n            Sábado: 08:30 - 20:00<br>\n            Domingo: 09:00 - 19:00</p>",
    "is_24hrs": false,
    "has_parking": true
  },
  {
    "id": "0348",
    "name": "Farmacia 348",
    "address": "Alfredo Silva Carvallo N° 1415, Maipú",
    "city": "Maipú",
    "region": "Región Metropolitana",
    "country": "CL",
    "phone": "232740566",
    "latitude": -33.531379,
    "longitude": -70.775031,
    "hours": "<p>Lunes a Viernes: 09:00 - 21:00<br>\n            Sábado: 09:00 - 20:00<br>\n            Domingo: 10:00 - 19:00</p>",
    "is_24hrs": false,
    "has_parking": true
  },
  {
    "id": "0349",
    "name": "Farmacia 349",
    "address": "Jesús Pons 409, Curicó",
    "city": "Curicó",
    "region": "Maule",
    "country": "CL",
    "phone": "232740487",
    "latitude": -34.985793,
    "longitude": -71.22666,
    "hours": "<p>Lunes a Viernes: 09:00 - 20:00<br>\n            Sábado: 10:00 - 19:00<br>\n            Domingo: 10:00 - 19:00</p>",
    "is_24hrs": false,
    "has_parking": true
  },
  {
    "id": "0350",
    "name": "Farmacia 350",
    "address": "Nataniel Cox 620, Locales 1-2-3 / Supermercado Tottus",
    "city": "Santiago",
    "region": "Región Metropolitana",
    "country": "CL",
    "phone": "232740568",
    "latitude": -33.453984,
    "longitude": -70.652196,
    "hours": "<p>Lunes a Viernes: 08:30 - 21:00<br>\n            Sábado: 08:30 - 21:00<br>\n            Domingo: 09:00 - 19:00</p>",
    "is_24hrs": false,
    "has_parking": false
  },
  {
    "id": "0351",
    "name": "Farmacia 351",
    "address": "Av. Vitacura N° 6345, Vitacura",
    "city": "Vitacura",
    "region": "Región Metropolitana",
    "country": "CL",
    "phone": "232740569",
    "latitude": -33.39024,
    "longitude": -70.570414,
    "hours": "<p>Lunes a Viernes: 08:00 - 23:59<br>\n            Sábado: 08:00 - 23:59<br>\n            Domingo: CERRADO</p>",
    "is_24hrs": true,
    "has_parking": true
  },
  {
    "id": "0354",
    "name": "Farmacia 354",
    "address": "San Pablo N° 2302, Santiago",
    "city": "Santiago",
    "region": "Región Metropolitana",
    "country": "CL",
    "phone": "232740504",
    "latitude": -33.435068,
    "longitude": -70.669094,
    "hours": "<p>Lunes a Viernes: 09:00 - 20:30<br>\n            Sábado: 10:00 - 17:00<br>\n            Domingo: CERRADO</p>",
    "is_24hrs": false,
    "has_parking": false
  },
  {
    "id": "0355",
    "name": "Farmacia 355",
    "address": "Av. Balmaceda N° 2408",
    "city": "Antofagasta",
    "region": "Antofagasta",
    "country": "CL",
    "phone": "232740570",
    "latitude": -23.646853,
    "longitude": -70.400991,
    "hours": "<p>Lunes a Viernes: 10:00 - 21:00<br>\n            Sábado: 10:00 - 21:00<br>\n            Domingo: 10:00 - 19:00</p>",
    "is_24hrs": false,
    "has_parking": true
  },
  {
    "id": "0357",
    "name": "Farmacia 357",
    "address": "Av. 18 de Septiembre N° 1402 - 1406, Arica",
    "city": "Arica",
    "region": "Arica y Parinacota",
    "country": "CL",
    "phone": "232740520",
    "latitude": -18.484236,
    "longitude": -70.306865,
    "hours": "<p>Lunes a Viernes: 09:00 - 22:00<br>\n            Sábado: 09:00 - 21:00<br>\n            Domingo: 10:00 - 19:00</p>",
    "is_24hrs": false,
    "has_parking": true
  },
  {
    "id": "0358",
    "name": "Farmacia 358",
    "address": "Camino El Alba N°11969, Local 301 Las Condes - Exterior (esquina San Ramon)",
    "city": "Las Condes",
    "region": "Región Metropolitana",
    "country": "CL",
    "phone": "232740572",
    "latitude": -33.401636,
    "longitude": -70.51586,
    "hours": "<p>Lunes a Viernes: 09:00 - 20:00<br>\n            Sábado: 10:00 - 20:00<br>\n            Domingo: 10:00 - 19:00</p>",
    "is_24hrs": false,
    "has_parking": true
  },
  {
    "id": "0359",
    "name": "Farmacia 359",
    "address": "Avenida Dos lote 8, Iquique (Bilbao/P.Hurtado)",
    "city": "Iquique",
    "region": "Tarapacá",
    "country": "CL",
    "phone": "232740573",
    "latitude": -20.261477,
    "longitude": -70.129257,
    "hours": "<p>Lunes a Viernes: 10:00 - 20:00<br>\n            Sábado: 10:00 - 20:00<br>\n            Domingo: CERRADO</p>",
    "is_24hrs": false,
    "has_parking": true
  },
  {
    "id": "0360",
    "name": "Farmacia 360",
    "address": "Ramón Freire N°7001, Pudahuel (Av. Pajaritos)",
    "city": "Pudahuel",
    "region": "Región Metropolitana",
    "country": "CL",
    "phone": "232740575",
    "latitude": -33.467678,
    "longitude": -70.731483,
    "hours": "<p>Lunes a Viernes: 09:00 - 21:00<br>\n            Sábado: 10:00 - 20:00<br>\n            Domingo: 10:00 - 19:00</p>",
    "is_24hrs": false,
    "has_parking": true
  },
  {
    "id": "0361",
    "name": "Farmacia 361",
    "address": "Aníbal Pinto N° 640, Parral",
    "city": "Parral",
    "region": "Maule",
    "country": "CL",
    "phone": "232740576",
    "latitude": -36.139894,
    "longitude": -71.824438,
    "hours": "<p>Lunes a Viernes: 09:30 - 19:00<br>\n            Sábado: 09:30 - 14:30<br>\n            Domingo: CERRADO</p>",
    "is_24hrs": false,
    "has_parking": false
  },
  {
    "id": "0362",
    "name": "Farmacia 362",
    "address": "Caletera General San Martín N° 19.000, Colina",
    "city": "Colina",
    "region": "Región Metropolitana",
    "country": "CL",
    "phone": "232740577",
    "latitude": -33.238407,
    "longitude": -70.695412,
    "hours": "<p>Lunes a Viernes: 09:00 - 21:00<br>\n            Sábado: 09:00 - 20:00<br>\n            Domingo: CERRADO</p>",
    "is_24hrs": false,
    "has_parking": true
  },
  {
    "id": "0365",
    "name": "Farmacia 365",
    "address": "Av. Grecia N° 3031, Ñuñoa",
    "city": "Ñuñoa",
    "region": "Región Metropolitana",
    "country": "CL",
    "phone": "232740579",
    "latitude": -33.464632,
    "longitude": -70.600078,
    "hours": "<p>Lunes a Viernes: 09:00 - 20:30<br>\n            Sábado: 09:00 - 19:30<br>\n            Domingo: CERRADO</p>",
    "is_24hrs": false,
    "has_parking": true
  },
  {
    "id": "0366",
    "name": "Farmacia 366",
    "address": "Prolongación Calle J.J. Pérez N°12010, La Calera / Supermercado Tottus",
    "city": "Calera",
    "region": "Valparaíso",
    "country": "CL",
    "phone": "232740580",
    "latitude": -32.790179,
    "longitude": -71.19014,
    "hours": "<p>Lunes a Viernes: 09:00 - 20:00<br>\n            Sábado: 09:00 - 19:00<br>\n            Domingo: 09:00 - 19:00</p>",
    "is_24hrs": false,
    "has_parking": true
  },
  {
    "id": "0367",
    "name": "Farmacia 367",
    "address": "Manuel Bulnes Nº 599, Puerto Natales",
    "city": "Natales",
    "region": "Magallanes y la Antártica Chilena",
    "country": "CL",
    "phone": "232740581",
    "latitude": -51.72748,
    "longitude": -72.506204,
    "hours": "<p>Lunes a Viernes: 11:00 - 20:00<br>\n            Sábado: 10:00 - 17:00<br>\n            Domingo: CERRADO</p>",
    "is_24hrs": false,
    "has_parking": false
  },
  {
    "id": "0368",
    "name": "Farmacia 368",
    "address": "Hochstetter N° 890, Temuco",
    "city": "Temuco",
    "region": "Araucanía",
    "country": "CL",
    "phone": "232740582",
    "latitude": -38.737666,
    "longitude": -72.617333,
    "hours": "<p>Lunes a Viernes: 09:00 - 22:00<br>\n            Sábado: 09:00 - 20:30<br>\n            Domingo: 10:00 - 18:00</p>",
    "is_24hrs": false,
    "has_parking": true
  },
  {
    "id": "0373",
    "name": "Farmacia 373",
    "address": "Sargento Aldea N° 1089, Aysén",
    "city": "Puerto Aysén",
    "region": "Aysén",
    "country": "CL",
    "phone": "232740585",
    "latitude": -45.403493,
    "longitude": -72.692531,
    "hours": "<p>Lunes a Viernes: 09:00 - 20:00<br>\n            Sábado: 09:00 - 19:00<br>\n            Domingo: CERRADO</p>",
    "is_24hrs": false,
    "has_parking": false
  },
  {
    "id": "0374",
    "name": "Farmacia 374",
    "address": "Av. Vicuña Mackenna N° 4102, Macul",
    "city": "Macul",
    "region": "Región Metropolitana",
    "country": "CL",
    "phone": "232740586",
    "latitude": -33.49166,
    "longitude": -70.61745,
    "hours": "<p>Lunes a Viernes: 08:00 - 20:30<br>\n            Sábado: 09:00 - 18:00<br>\n            Domingo: CERRADO</p>",
    "is_24hrs": false,
    "has_parking": true
  },
  {
    "id": "0378",
    "name": "Farmacia 378",
    "address": "Av. Domingo Santa Maria 4120, Renca",
    "city": "Renca",
    "region": "Región Metropolitana",
    "country": "CL",
    "phone": "232740589",
    "latitude": -33.40509390157,
    "longitude": -70.70479673349,
    "hours": "<p>Lunes a Viernes: 09:00 - 19:30<br>\n            Sábado: 09:00 - 19:30<br>\n            Domingo: 10:00 - 16:00</p>",
    "is_24hrs": false,
    "has_parking": true
  },
  {
    "id": "0381",
    "name": "Farmacia 381",
    "address": "Av. Alemania N° 01605, Temuco",
    "city": "Temuco",
    "region": "Araucanía",
    "country": "CL",
    "phone": "232740592",
    "latitude": -38.730887,
    "longitude": -72.62156,
    "hours": "<p>Lunes a Viernes: 09:00 - 18:00<br>\n            Sábado: 10:00 - 18:00<br>\n            Domingo: 10:00 - 18:00</p>",
    "is_24hrs": false,
    "has_parking": true
  },
  {
    "id": "0383",
    "name": "Farmacia 383",
    "address": "Avenida Paul Harris N°10287, Local 1, Las Condes",
    "city": "Las Condes",
    "region": "Región Metropolitana",
    "country": "CL",
    "phone": "232740594",
    "latitude": -33.38637,
    "longitude": -70.531264,
    "hours": "<p>Lunes a Viernes: 09:00 - 21:00<br>\n            Sábado: 10:00 - 21:00<br>\n            Domingo: CERRADO</p>",
    "is_24hrs": false,
    "has_parking": true
  },
  {
    "id": "0384",
    "name": "Farmacia 384",
    "address": "Matucana N°1202 local 1, Quinta Normal",
    "city": "Quinta Normal",
    "region": "Región Metropolitana",
    "country": "CL",
    "phone": null,
    "latitude": -33.43211,
    "longitude": -70.68115,
    "hours": "<p>Lunes a Viernes: 09:00 - 21:00<br>\n            Sábado: 09:00 - 21:00<br>\n            Domingo: 09:00 - 21:00</p>",
    "is_24hrs": false,
    "has_parking": true
  },
  {
    "id": "0385",
    "name": "Farmacia 385",
    "address": "Av. Rancagua N° 0180, Providencia / Supermercado Líder",
    "city": "Providencia",
    "region": "Región Metropolitana",
    "country": "CL",
    "phone": "232740361",
    "latitude": -33.440845,
    "longitude": -70.630255,
    "hours": "<p>Lunes a Viernes: 08:00 - 21:30<br>\n            Sábado: 08:00 - 21:30<br>\n            Domingo: 09:00 - 19:00</p>",
    "is_24hrs": false,
    "has_parking": true
  },
  {
    "id": "0386",
    "name": "Farmacia 386",
    "address": "Av. Grecia 245 local N°3, Ñuñoa / Supermercado Líder",
    "city": "Ñuñoa",
    "region": "Región Metropolitana",
    "country": "CL",
    "phone": "232740336",
    "latitude": -33.455267,
    "longitude": -70.62709,
    "hours": "<p>Lunes a Viernes: 08:00 - 21:00<br>\n            Sábado: 08:00 - 21:00<br>\n            Domingo: 08:00 - 19:00</p>",
    "is_24hrs": false,
    "has_parking": true
  },
  {
    "id": "0387",
    "name": "Farmacia 387",
    "address": "Av. General Velásquez N° 060, Estación Central / Supermercado Líder",
    "city": "Estación Central",
    "region": "Región Metropolitana",
    "country": "CL",
    "phone": "232740378",
    "latitude": -33.453724,
    "longitude": -70.691491,
    "hours": "<p>Lunes a Viernes: 09:00 - 21:00<br>\n            Sábado: 09:00 - 21:00<br>\n            Domingo: 09:00 - 19:00</p>",
    "is_24hrs": false,
    "has_parking": true
  },
  {
    "id": "0388",
    "name": "Farmacia 388",
    "address": "Av. Irarrazaval N°2928, Ñuñoa  / Supermercado Líder",
    "city": "Ñuñoa",
    "region": "Región Metropolitana",
    "country": "CL",
    "phone": "232740366",
    "latitude": -33.454473,
    "longitude": -70.600609,
    "hours": "<p>Lunes a Viernes: 08:30 - 21:00<br>\n            Sábado: 08:30 - 21:00<br>\n            Domingo: 09:00 - 19:00</p>",
    "is_24hrs": false,
    "has_parking": true
  },
  {
    "id": "0389",
    "name": "Farmacia 389",
    "address": "Avenida Recoleta 3501, Recoleta / Supermercado Líder",
    "city": "Recoleta",
    "region": "Región Metropolitana",
    "country": "CL",
    "phone": "232740339",
    "latitude": -33.393559,
    "longitude": -70.64209,
    "hours": "<p>Lunes a Viernes: 08:30 - 21:00<br>\n            Sábado: 08:30 - 21:00<br>\n            Domingo: 09:00 - 19:00</p>",
    "is_24hrs": false,
    "has_parking": true
  },
  {
    "id": "0390",
    "name": "Farmacia 390",
    "address": "Avenida Bernando OHiggins 314, Quilicura / Supermercado Líder",
    "city": "Quilicura",
    "region": "Región Metropolitana",
    "country": "CL",
    "phone": "232740359",
    "latitude": -33.356574,
    "longitude": -70.728575,
    "hours": "<p>Lunes a Viernes: 08:30 - 21:30<br>\n            Sábado: 09:00 - 21:30<br>\n            Domingo: 09:00 - 19:00</p>",
    "is_24hrs": false,
    "has_parking": true
  },
  {
    "id": "0392",
    "name": "Farmacia 392",
    "address": "Av. Independencia N° 4142, Conchalí / Supermercado Líder",
    "city": "Independencia",
    "region": "Región Metropolitana",
    "country": "CL",
    "phone": "232740335",
    "latitude": -33.391024,
    "longitude": -70.676326,
    "hours": "<p>Lunes a Viernes: 08:30 - 21:00<br>\n            Sábado: 08:30 - 21:00<br>\n            Domingo: 08:30 - 19:00</p>",
    "is_24hrs": false,
    "has_parking": true
  },
  {
    "id": "0393",
    "name": "Farmacia 393",
    "address": "Gran Avenida Nº6150, San Miguel",
    "city": "San Miguel",
    "region": "Región Metropolitana",
    "country": "CL",
    "phone": "232740595",
    "latitude": -33.51222,
    "longitude": -70.657089,
    "hours": "<p>Lunes a Viernes: 08:30 - 21:00<br>\n            Sábado: 09:00 - 21:00<br>\n            Domingo: 09:00 - 19:00</p>",
    "is_24hrs": false,
    "has_parking": true
  },
  {
    "id": "0394",
    "name": "Farmacia 394",
    "address": "Av. Froilan Roa N°7107 / Supermercado Líder",
    "city": "La Florida",
    "region": "Región Metropolitana",
    "country": "CL",
    "phone": "232740382",
    "latitude": -33.518039,
    "longitude": -70.597689,
    "hours": "<p>Lunes a Viernes: 09:00 - 21:00<br>\n            Sábado: 09:00 - 21:00<br>\n            Domingo: 09:00 - 19:00</p>",
    "is_24hrs": false,
    "has_parking": true
  },
  {
    "id": "0395",
    "name": "Farmacia 395",
    "address": "Av. Vicuña Mackenna N° 7196, La Florida / Supermercado Líder",
    "city": "La Florida",
    "region": "Región Metropolitana",
    "country": "CL",
    "phone": "232740329",
    "latitude": -33.519181,
    "longitude": -70.602661,
    "hours": "<p>Lunes a Viernes: 09:00 - 21:00<br>\n            Sábado: 09:00 - 21:00<br>\n            Domingo: 09:00 - 19:00</p>",
    "is_24hrs": false,
    "has_parking": true
  },
  {
    "id": "0396",
    "name": "Farmacia 396",
    "address": "Av. Santa Amalia Nº 1763 / Supermercado Líder",
    "city": "La Florida",
    "region": "Región Metropolitana",
    "country": "CL",
    "phone": "232740528",
    "latitude": -33.544006,
    "longitude": -70.570314,
    "hours": "<p>Lunes a Viernes: 09:00 - 21:00<br>\n            Sábado: 09:00 - 21:00<br>\n            Domingo: 09:00 - 19:00</p>",
    "is_24hrs": false,
    "has_parking": true
  },
  {
    "id": "0397",
    "name": "Farmacia 397",
    "address": "Av. Américo Vespucio N° 6325, La Florida / Supermercado Líder",
    "city": "La Florida",
    "region": "Región Metropolitana",
    "country": "CL",
    "phone": "232740334",
    "latitude": -33.510663,
    "longitude": -70.591021,
    "hours": "<p>Lunes a Viernes: 09:00 - 21:00<br>\n            Sábado: 09:00 - 21:00<br>\n            Domingo: 09:00 - 19:00</p>",
    "is_24hrs": false,
    "has_parking": true
  },
  {
    "id": "0398",
    "name": "Farmacia 398",
    "address": "Av. José Pedro Alessandri N° 2127, Macul / Supermercado Líder",
    "city": "Macul",
    "region": "Región Metropolitana",
    "country": "CL",
    "phone": "232740354",
    "latitude": -33.473634,
    "longitude": -70.598765,
    "hours": "<p>Lunes a Viernes: 08:30 - 21:00<br>\n            Sábado: 08:30 - 21:00<br>\n            Domingo: 10:30 - 19:00</p>",
    "is_24hrs": false,
    "has_parking": true
  },
  {
    "id": "0399",
    "name": "Farmacia 399",
    "address": "Riquelme N°69, El Bosque  / Supermercado Líder",
    "city": "El Bosque",
    "region": "Región Metropolitana",
    "country": "CL",
    "phone": "232740333",
    "latitude": -33.54608,
    "longitude": -70.668011,
    "hours": "<p>Lunes a Viernes: 09:00 - 20:30<br>\n            Sábado: 09:00 - 20:30<br>\n            Domingo: 09:00 - 19:00</p>",
    "is_24hrs": false,
    "has_parking": true
  },
  {
    "id": "0400",
    "name": "Farmacia 400",
    "address": "Av. Eduardo Frei Montalva N° 190, Rancagua / Supermercado Líder",
    "city": "Rancagua",
    "region": "OHiggins",
    "country": "CL",
    "phone": "232740330",
    "latitude": -34.180903,
    "longitude": -70.730731,
    "hours": "<p>Lunes a Viernes: 09:00 - 21:30<br>\n            Sábado: 09:00 - 21:30<br>\n            Domingo: 09:00 - 19:00</p>",
    "is_24hrs": false,
    "has_parking": true
  },
  {
    "id": "0402",
    "name": "Farmacia 402",
    "address": "Carmen 1190-1196 / Supermercado Líder",
    "city": "Curicó",
    "region": "Maule",
    "country": "CL",
    "phone": "232740596",
    "latitude": -34.977732,
    "longitude": -71.239272,
    "hours": "<p>Lunes a Viernes: CERRADO<br>\n            Sábado: CERRADO<br>\n            Domingo: CERRADO</p>",
    "is_24hrs": false,
    "has_parking": true
  },
  {
    "id": "0404",
    "name": "Farmacia 404",
    "address": "Avenida Leon Bustos 0280, Local 9 Linares / Supermercado Líder",
    "city": "Linares",
    "region": "Maule",
    "country": "CL",
    "phone": "232740375",
    "latitude": -35.844117,
    "longitude": -71.606806,
    "hours": "<p>Lunes a Viernes: 09:00 - 21:00<br>\n            Sábado: 09:00 - 21:00<br>\n            Domingo: 10:00 - 19:00</p>",
    "is_24hrs": false,
    "has_parking": true
  },
  {
    "id": "0405",
    "name": "Farmacia 405",
    "address": "15 Norte N° 961 local 115 al 118 / Supermercado Líder",
    "city": "Viña del Mar",
    "region": "Valparaíso",
    "country": "CL",
    "phone": "232740381",
    "latitude": -33.008106,
    "longitude": -71.546595,
    "hours": "<p>Lunes a Viernes: 08:30 - 21:00<br>\n            Sábado: 09:00 - 21:00<br>\n            Domingo: 09:00 - 19:00</p>",
    "is_24hrs": false,
    "has_parking": true
  },
  {
    "id": "0406",
    "name": "Farmacia 406",
    "address": "Ramón Freire N° 1351, Quilpué / Supermercado Líder",
    "city": "Quilpué",
    "region": "Valparaíso",
    "country": "CL",
    "phone": "232740349",
    "latitude": -33.044815,
    "longitude": -71.4183,
    "hours": "<p>Lunes a Viernes: 08:30 - 21:00<br>\n            Sábado: 08:30 - 21:00<br>\n            Domingo: 08:30 - 19:00</p>",
    "is_24hrs": false,
    "has_parking": true
  },
  {
    "id": "0407",
    "name": "Farmacia 407",
    "address": "15 Norte N° 961 local 248 / Supermercado Espacio Urbano",
    "city": "Viña del Mar",
    "region": "Valparaíso",
    "country": "CL",
    "phone": "232740371",
    "latitude": -33.008106,
    "longitude": -71.546595,
    "hours": "<p>Lunes a Viernes: CERRADO<br>\n            Sábado: CERRADO<br>\n            Domingo: CERRADO</p>",
    "is_24hrs": false,
    "has_parking": true
  },
  {
    "id": "0410",
    "name": "Farmacia 410",
    "address": "Av. 21 de Mayo, Quilllota / Supermercado Líder",
    "city": "Quillota",
    "region": "Valparaíso",
    "country": "CL",
    "phone": "232740367",
    "latitude": -32.874703,
    "longitude": -71.242325,
    "hours": "<p>Lunes a Viernes: 08:30 - 20:30<br>\n            Sábado: 08:30 - 20:30<br>\n            Domingo: 08:30 - 19:00</p>",
    "is_24hrs": false,
    "has_parking": true
  },
  {
    "id": "0412",
    "name": "Farmacia 412",
    "address": "Avenida Américo Vespucio N°3100, Peñalolén / Supermercado Líder",
    "city": "Peñalolén",
    "region": "Región Metropolitana",
    "country": "CL",
    "phone": "232740372",
    "latitude": -33.486142,
    "longitude": -70.578417,
    "hours": "<p>Lunes a Viernes: 09:00 - 21:00<br>\n            Sábado: 09:00 - 21:00<br>\n            Domingo: 09:00 - 19:00</p>",
    "is_24hrs": false,
    "has_parking": true
  },
  {
    "id": "0413",
    "name": "Farmacia 413",
    "address": "Camino El Alba N°11865, Las Condes (Interior Lider Los Dominicos)",
    "city": "Las Condes",
    "region": "Región Metropolitana",
    "country": "CL",
    "phone": "232740348",
    "latitude": -33.401723,
    "longitude": -70.516818,
    "hours": "<p>Lunes a Viernes: 08:00 - 21:30<br>\n            Sábado: 08:00 - 21:30<br>\n            Domingo: 09:00 - 19:00</p>",
    "is_24hrs": false,
    "has_parking": true
  },
  {
    "id": "0414",
    "name": "Farmacia 414",
    "address": "Av. Tomás Moro N° 1149, Las Condes / Supermercado Líder",
    "city": "Las Condes",
    "region": "Región Metropolitana",
    "country": "CL",
    "phone": "232740543",
    "latitude": -33.424514,
    "longitude": -70.553668,
    "hours": "<p>Lunes a Viernes: 08:30 - 21:30<br>\n            Sábado: 08:30 - 21:30<br>\n            Domingo: 09:00 - 19:00</p>",
    "is_24hrs": false,
    "has_parking": true
  },
  {
    "id": "0416",
    "name": "Farmacia 416",
    "address": "Autopista Concepción Talcahuano N° 9000, Talcahuano / Supermercado Líder",
    "city": "Hualpén",
    "region": "Bío Bío",
    "country": "CL",
    "phone": "232740346",
    "latitude": -36.795059,
    "longitude": -73.068051,
    "hours": "<p>Lunes a Viernes: 08:30 - 20:30<br>\n            Sábado: 08:30 - 20:00<br>\n            Domingo: 08:30 - 19:00</p>",
    "is_24hrs": false,
    "has_parking": true
  },
  {
    "id": "0417",
    "name": "Farmacia 417",
    "address": "Lider Concepción",
    "city": "Concepción",
    "region": "Bío Bío",
    "country": "CL",
    "phone": "232740379",
    "latitude": -36.828867,
    "longitude": -73.060606,
    "hours": "<p>Lunes a Viernes: 08:00 - 21:00<br>\n            Sábado: 08:00 - 21:00<br>\n            Domingo: 08:30 - 19:00</p>",
    "is_24hrs": false,
    "has_parking": true
  },
  {
    "id": "0418",
    "name": "Farmacia 418",
    "address": "Av. Ricardo Vicuña N° 284, Los Ángeles / Supermercado Líder",
    "city": "Los Ángeles",
    "region": "Bío Bío",
    "country": "CL",
    "phone": "232740331",
    "latitude": -37.47317426891,
    "longitude": -72.34941441788,
    "hours": "<p>Lunes a Viernes: 08:00 - 20:30<br>\n            Sábado: 08:00 - 20:30<br>\n            Domingo: 08:30 - 19:00</p>",
    "is_24hrs": false,
    "has_parking": true
  },
  {
    "id": "0421",
    "name": "Farmacia 421",
    "address": "Av. Pajaritos N° 2689, Maipú / Supermercado Líder",
    "city": "Maipú",
    "region": "Región Metropolitana",
    "country": "CL",
    "phone": "232740365",
    "latitude": -33.502397,
    "longitude": -70.75676,
    "hours": "<p>Lunes a Viernes: 08:30 - 21:30<br>\n            Sábado: 08:30 - 21:30<br>\n            Domingo: 09:00 - 19:00</p>",
    "is_24hrs": false,
    "has_parking": true
  },
  {
    "id": "0422",
    "name": "Farmacia 422",
    "address": "Av. Concha y Toro N°1149, Local 42-44 Puente Alto / Supermercado Puente Alto",
    "city": "Puente Alto",
    "region": "Región Metropolitana",
    "country": "CL",
    "phone": "232740342",
    "latitude": -33.598642,
    "longitude": -70.577502,
    "hours": "<p>Lunes a Viernes: 10:00 - 20:00<br>\n            Sábado: 10:00 - 20:00<br>\n            Domingo: 10:00 - 19:00</p>",
    "is_24hrs": false,
    "has_parking": true
  },
  {
    "id": "0423",
    "name": "Farmacia 423",
    "address": "Av. Pajaritos N° 4500, Maipú / Supermercado Líder",
    "city": "Maipú",
    "region": "Región Metropolitana",
    "country": "CL",
    "phone": "232740347",
    "latitude": -33.481478,
    "longitude": -70.745344,
    "hours": "<p>Lunes a Viernes: 08:30 - 21:30<br>\n            Sábado: 08:30 - 21:30<br>\n            Domingo: 08:30 - 19:00</p>",
    "is_24hrs": false,
    "has_parking": true
  },
  {
    "id": "0424",
    "name": "Farmacia 424",
    "address": "San Jose N°69 / Supermercado Líder",
    "city": "San Bernardo",
    "region": "Región Metropolitana",
    "country": "CL",
    "phone": "232740345",
    "latitude": -33.597516,
    "longitude": -70.69803,
    "hours": "<p>Lunes a Viernes: 09:00 - 21:00<br>\n            Sábado: 09:00 - 21:00<br>\n            Domingo: 09:00 - 19:00</p>",
    "is_24hrs": false,
    "has_parking": true
  },
  {
    "id": "0426",
    "name": "Farmacia 426",
    "address": "Av. Américo Vespucio N° 2500, Cerrillos / Supermercado Líder",
    "city": "Cerrillos",
    "region": "Región Metropolitana",
    "country": "CL",
    "phone": "232740341",
    "latitude": -33.515029,
    "longitude": -70.714703,
    "hours": "<p>Lunes a Viernes: 09:00 - 21:00<br>\n            Sábado: 09:00 - 20:00<br>\n            Domingo: 09:00 - 19:00</p>",
    "is_24hrs": false,
    "has_parking": true
  },
  {
    "id": "0427",
    "name": "Farmacia 427",
    "address": "Av. Los Toros N° 05441, Puente Alto / Supermercado Líder",
    "city": "Puente Alto",
    "region": "Región Metropolitana",
    "country": "CL",
    "phone": "232740364",
    "latitude": -33.566671,
    "longitude": -70.557171,
    "hours": "<p>Lunes a Viernes: 09:00 - 21:00<br>\n            Sábado: 09:00 - 21:00<br>\n            Domingo: 09:00 - 19:00</p>",
    "is_24hrs": false,
    "has_parking": true
  },
  {
    "id": "0428",
    "name": "Farmacia 428",
    "address": "Av. Bernardo OHiggins N° 807, Talagante / Supermercado Líder",
    "city": "Talagante",
    "region": "Región Metropolitana",
    "country": "CL",
    "phone": "232740370",
    "latitude": -33.662443,
    "longitude": -70.925159,
    "hours": "<p>Lunes a Viernes: 09:00 - 20:00<br>\n            Sábado: 09:00 - 20:00<br>\n            Domingo: 10:00 - 19:00</p>",
    "is_24hrs": false,
    "has_parking": true
  },
  {
    "id": "0430",
    "name": "Farmacia 430",
    "address": "Av. Jorge Alessandri N°1131, La Reina / Supermercado Líder",
    "city": "La Reina",
    "region": "Región Metropolitana",
    "country": "CL",
    "phone": "232740369",
    "latitude": -33.460326,
    "longitude": -70.544176,
    "hours": "<p>Lunes a Viernes: 09:00 - 21:00<br>\n            Sábado: 09:00 - 21:00<br>\n            Domingo: 09:00 - 19:00</p>",
    "is_24hrs": false,
    "has_parking": true
  },
  {
    "id": "0431",
    "name": "Farmacia 431",
    "address": "Pedro de Valdivia N° 1865, Providencia / Supermercado Líder",
    "city": "Providencia",
    "region": "Región Metropolitana",
    "country": "CL",
    "phone": "232740350",
    "latitude": -33.439831,
    "longitude": -70.607298,
    "hours": "<p>Lunes a Viernes: 08:00 - 21:30<br>\n            Sábado: 08:00 - 21:30<br>\n            Domingo: 09:00 - 19:00</p>",
    "is_24hrs": false,
    "has_parking": true
  },
  {
    "id": "0435",
    "name": "Farmacia 435",
    "address": "Balmaceda 3242 (Interior Sup. Líder, Calama)",
    "city": "Calama",
    "region": "Antofagasta",
    "country": "CL",
    "phone": "232740338",
    "latitude": -22.450409,
    "longitude": -68.920959,
    "hours": "<p>Lunes a Viernes: 09:00 - 21:00<br>\n            Sábado: 10:00 - 20:00<br>\n            Domingo: CERRADO</p>",
    "is_24hrs": false,
    "has_parking": true
  },
  {
    "id": "0436",
    "name": "Farmacia 436",
    "address": "Avenida Diego Portales N°2291, Arica.",
    "city": "Arica",
    "region": "Arica y Parinacota",
    "country": "CL",
    "phone": null,
    "latitude": -18.482948,
    "longitude": -70.292871,
    "hours": "<p>Lunes a Viernes: 09:00 - 21:00<br>\n            Sábado: 09:00 - 21:00<br>\n            Domingo: 09:00 - 21:00</p>",
    "is_24hrs": false,
    "has_parking": true
  },
  {
    "id": "0437",
    "name": "Farmacia 437",
    "address": "Av. Héroes de la Concepción N° 2653, Iquique / Supermercado Líder",
    "city": "Iquique",
    "region": "Tarapacá",
    "country": "CL",
    "phone": "232740357",
    "latitude": -20.235231,
    "longitude": -70.14336,
    "hours": "<p>Lunes a Viernes: 08:30 - 21:00<br>\n            Sábado: 08:30 - 21:00<br>\n            Domingo: 09:00 - 19:00</p>",
    "is_24hrs": false,
    "has_parking": true
  },
  {
    "id": "0439",
    "name": "Farmacia 439",
    "address": "Av. Francisco de Aguirre N°2 (Puertas del Mar) / Supermercado Líder",
    "city": "La Serena",
    "region": "Coquimbo",
    "country": "CL",
    "phone": "232740358",
    "latitude": -29.902549,
    "longitude": -71.259212,
    "hours": "<p>Lunes a Viernes: 09:00 - 21:00<br>\n            Sábado: 09:00 - 21:00<br>\n            Domingo: 09:00 - 19:00</p>",
    "is_24hrs": false,
    "has_parking": true
  },
  {
    "id": "0441",
    "name": "Farmacia 441",
    "address": "Av. Domeyko N° 55 local 1, Coquimbo",
    "city": "Coquimbo",
    "region": "Coquimbo",
    "country": "CL",
    "phone": null,
    "latitude": -29.96698,
    "longitude": -71.33265,
    "hours": "<p>Lunes a Viernes: 09:00 - 21:00<br>\n            Sábado: 09:00 - 21:00<br>\n            Domingo: 09:00 - 21:00</p>",
    "is_24hrs": false,
    "has_parking": true
  },
  {
    "id": "0443",
    "name": "Farmacia 443",
    "address": "Av. Parque Industrial N° 400, interior Sup. Lider Puerto Montt",
    "city": "Puerto Montt",
    "region": "Los Lagos",
    "country": "CL",
    "phone": "232740380",
    "latitude": -41.460627,
    "longitude": -72.950184,
    "hours": "<p>Lunes a Viernes: 09:00 - 21:00<br>\n            Sábado: 09:00 - 21:00<br>\n            Domingo: 09:00 - 19:00</p>",
    "is_24hrs": false,
    "has_parking": true
  },
  {
    "id": "0444",
    "name": "Farmacia 444",
    "address": "Buera 1400, Valdivia / Supermercado Líder",
    "city": "Valdivia",
    "region": "Los Ríos",
    "country": "CL",
    "phone": "232740337",
    "latitude": -39.827704,
    "longitude": -73.236816,
    "hours": "<p>Lunes a Viernes: 08:30 - 21:00<br>\n            Sábado: 08:30 - 21:00<br>\n            Domingo: 09:00 - 19:00</p>",
    "is_24hrs": false,
    "has_parking": true
  },
  {
    "id": "0446",
    "name": "Farmacia 446",
    "address": "Av. Presidente Eduardo Frei Montalva N° 01110, Punta Arenas / Supermercado Líder",
    "city": "Punta Arenas",
    "region": "Magallanes y la Antártica Chilena",
    "country": "CL",
    "phone": "232740368",
    "latitude": -53.1438391,
    "longitude": -70.9239812,
    "hours": "<p>Lunes a Viernes: 09:00 - 21:00<br>\n            Sábado: 09:00 - 21:00<br>\n            Domingo: 10:00 - 19:00</p>",
    "is_24hrs": false,
    "has_parking": true
  },
  {
    "id": "0447",
    "name": "Farmacia 447",
    "address": "Errázuriz Nº 1.358, Osorno / Supermercado Líder",
    "city": "Osorno",
    "region": "Los Lagos",
    "country": "CL",
    "phone": "232740597",
    "latitude": -40.573104,
    "longitude": -73.126588,
    "hours": "<p>Lunes a Viernes: 09:00 - 21:00<br>\n            Sábado: 09:00 - 21:00<br>\n            Domingo: 09:00 - 19:00</p>",
    "is_24hrs": false,
    "has_parking": true
  },
  {
    "id": "0448",
    "name": "Farmacia 448",
    "address": "Av. Gabriela Mistral N° 02621 Local 1, Temuco / Supermercado Líder",
    "city": "Temuco",
    "region": "Araucanía",
    "country": "CL",
    "phone": "232740363",
    "latitude": -38.734636,
    "longitude": -72.641816,
    "hours": "<p>Lunes a Viernes: 09:00 - 21:00<br>\n            Sábado: 09:00 - 21:00<br>\n            Domingo: 09:00 - 19:00</p>",
    "is_24hrs": false,
    "has_parking": true
  },
  {
    "id": "0450",
    "name": "Farmacia 450",
    "address": "San Francisco 350",
    "city": "Puerto Varas",
    "region": "Los Lagos",
    "country": "CL",
    "phone": "232740583",
    "latitude": -41.3170808,
    "longitude": -72.9848649,
    "hours": "<p>Lunes a Viernes: 09:00 - 20:00<br>\n            Sábado: 10:00 - 20:00<br>\n            Domingo: 11:00 - 19:00</p>",
    "is_24hrs": false,
    "has_parking": false
  },
  {
    "id": "0451",
    "name": "Farmacia 451",
    "address": "Av. Las Condes N° 10295 / Supermercado Líder",
    "city": "Las Condes",
    "region": "Región Metropolitana",
    "country": "CL",
    "phone": "232740351",
    "latitude": -33.384771,
    "longitude": -70.533465,
    "hours": "<p>Lunes a Viernes: 08:00 - 21:30<br>\n            Sábado: 08:00 - 21:30<br>\n            Domingo: 09:00 - 19:00</p>",
    "is_24hrs": false,
    "has_parking": true
  },
  {
    "id": "0453",
    "name": "Farmacia 453",
    "address": "Av. Las Condes N° 12916, Lo Barnechea / Supermercado Líder",
    "city": "Lo Barnechea",
    "region": "Región Metropolitana",
    "country": "CL",
    "phone": "232740343",
    "latitude": -33.370595,
    "longitude": -70.512342,
    "hours": "<p>Lunes a Viernes: 08:30 - 21:30<br>\n            Sábado: 08:30 - 21:30<br>\n            Domingo: 09:00 - 19:00</p>",
    "is_24hrs": false,
    "has_parking": true
  },
  {
    "id": "0454",
    "name": "Farmacia 454",
    "address": "Buenaventura N° 1770, Vitacura / Supermercado Líder",
    "city": "Vitacura",
    "region": "Región Metropolitana",
    "country": "CL",
    "phone": "232740340",
    "latitude": -33.386393,
    "longitude": -70.568318,
    "hours": "<p>Lunes a Viernes: 08:00 - 21:00<br>\n            Sábado: 08:30 - 21:00<br>\n            Domingo: 09:00 - 19:00</p>",
    "is_24hrs": false,
    "has_parking": true
  },
  {
    "id": "0455",
    "name": "Farmacia 455",
    "address": "Av. Santa Teresa N° 683 local 18, Los Andes / Supermercado Líder",
    "city": "Los Andes",
    "region": "Valparaíso",
    "country": "CL",
    "phone": "232740376",
    "latitude": -32.835877,
    "longitude": -70.604015,
    "hours": "<p>Lunes a Viernes: 09:00 - 20:00<br>\n            Sábado: 09:00 - 20:00<br>\n            Domingo: 09:30 - 19:00</p>",
    "is_24hrs": false,
    "has_parking": true
  },
  {
    "id": "0456",
    "name": "Farmacia 456",
    "address": "Av. Libertador Bernardo OHiggins N° 5199 local 2, Estación Central / Supermercado Espacio Urbano",
    "city": "Estación Central",
    "region": "Región Metropolitana",
    "country": "CL",
    "phone": "232740377",
    "latitude": -33.456768,
    "longitude": -70.705229,
    "hours": "<p>Lunes a Viernes: 09:00 - 20:30<br>\n            Sábado: 09:00 - 20:30<br>\n            Domingo: 09:00 - 19:00</p>",
    "is_24hrs": false,
    "has_parking": true
  },
  {
    "id": "0460",
    "name": "Farmacia 460",
    "address": "Av. Pedro de Valdivia N° 3774, Ñuñoa",
    "city": "Ñuñoa",
    "region": "Región Metropolitana",
    "country": "CL",
    "phone": "232740600",
    "latitude": -33.457218,
    "longitude": -70.605357,
    "hours": "<p>Lunes a Viernes: 09:00 - 21:00<br>\n            Sábado: 10:00 - 20:00<br>\n            Domingo: CERRADO</p>",
    "is_24hrs": false,
    "has_parking": true
  },
  {
    "id": "0461",
    "name": "Farmacia 461",
    "address": "Los Carrera N° 2242, Copiapó / Supermercado Unimarc",
    "city": "Copiapó",
    "region": "Atacama",
    "country": "CL",
    "phone": "232740601",
    "latitude": -27.378627,
    "longitude": -70.314496,
    "hours": "<p>Lunes a Viernes: CERRADO<br>\n            Sábado: CERRADO<br>\n            Domingo: CERRADO</p>",
    "is_24hrs": false,
    "has_parking": true
  },
  {
    "id": "0462",
    "name": "Farmacia 462",
    "address": "Av. Portugal N° 480, Santiago ",
    "city": "Santiago",
    "region": "Región Metropolitana",
    "country": "CL",
    "phone": "232740602",
    "latitude": -33.44795,
    "longitude": -70.63513,
    "hours": "<p>Lunes a Viernes: 08:00 - 23:59<br>\n            Sábado: 08:00 - 23:59<br>\n            Domingo: 00:00 - 23:59</p>",
    "is_24hrs": true,
    "has_parking": true
  },
  {
    "id": "0465",
    "name": "Farmacia 465",
    "address": "Av. Americo Vespucio N° 7310, La Florida / Supermercado Tottus",
    "city": "La Florida",
    "region": "Región Metropolitana",
    "country": "CL",
    "phone": "232740605",
    "latitude": -33.521773,
    "longitude": -70.597117,
    "hours": "<p>Lunes a Viernes: 09:00 - 21:00<br>\n            Sábado: 09:00 - 15:00<br>\n            Domingo: CERRADO</p>",
    "is_24hrs": false,
    "has_parking": true
  },
  {
    "id": "0466",
    "name": "Farmacia 466",
    "address": "Colon N° 468, Los Angeles",
    "city": "Los Ángeles",
    "region": "Bío Bío",
    "country": "CL",
    "phone": "232740606",
    "latitude": -37.46751651259,
    "longitude": -72.35071880798,
    "hours": "<p>Lunes a Viernes: 09:00 - 20:00<br>\n            Sábado: 09:00 - 20:00<br>\n            Domingo: 09:00 - 16:00</p>",
    "is_24hrs": false,
    "has_parking": false
  },
  {
    "id": "0467",
    "name": "Farmacia 467",
    "address": "Av. Neptuno N° 720, Lo Prado / Supermercado Líder",
    "city": "Lo Prado",
    "region": "Región Metropolitana",
    "country": "CL",
    "phone": "232740607",
    "latitude": -33.445327,
    "longitude": -70.723715,
    "hours": "<p>Lunes a Viernes: 08:30 - 21:00<br>\n            Sábado: 08:30 - 21:00<br>\n            Domingo: 09:00 - 19:00</p>",
    "is_24hrs": false,
    "has_parking": true
  },
  {
    "id": "0469",
    "name": "Farmacia 469",
    "address": "Paseo Colina Sur N° 14.500, Colina / Supermercado Líder",
    "city": "Colina",
    "region": "Región Metropolitana",
    "country": "CL",
    "phone": "232740608",
    "latitude": -33.276691,
    "longitude": -70.628153,
    "hours": "<p>Lunes a Viernes: 08:30 - 21:00<br>\n            Sábado: 08:30 - 21:00<br>\n            Domingo: 09:00 - 19:00</p>",
    "is_24hrs": false,
    "has_parking": true
  },
  {
    "id": "0470",
    "name": "Farmacia 470",
    "address": "Germán Riesco N° 698, San Vicente de Tagua Tagua",
    "city": "San Vicente",
    "region": "OHiggins",
    "country": "CL",
    "phone": "232740609",
    "latitude": -34.44031,
    "longitude": -71.075857,
    "hours": "<p>Lunes a Viernes: 09:00 - 20:00<br>\n            Sábado: 10:00 - 18:00<br>\n            Domingo: CERRADO</p>",
    "is_24hrs": false,
    "has_parking": true
  },
  {
    "id": "0472",
    "name": "Farmacia 472",
    "address": "Av. Vicuña Mackenna N° 0153, Melipilla  / Supermercado Líder",
    "city": "Melipilla",
    "region": "Región Metropolitana",
    "country": "CL",
    "phone": "232740610",
    "latitude": -33.68089,
    "longitude": -71.20338,
    "hours": "<p>Lunes a Viernes: 09:00 - 20:00<br>\n            Sábado: 09:00 - 20:00<br>\n            Domingo: 09:00 - 19:00</p>",
    "is_24hrs": false,
    "has_parking": true
  },
  {
    "id": "0473",
    "name": "Farmacia 473",
    "address": "LIDER CORONEL",
    "city": "Coronel",
    "region": "Bío Bío",
    "country": "CL",
    "phone": "232740612",
    "latitude": -36.995492,
    "longitude": -73.162744,
    "hours": "<p>Lunes a Viernes: 09:00 - 20:00<br>\n            Sábado: 10:00 - 20:00<br>\n            Domingo: 10:00 - 19:00</p>",
    "is_24hrs": false,
    "has_parking": true
  },
  {
    "id": "0474",
    "name": "Farmacia 474",
    "address": "Av. Balmaceda N° 2154, La Serena / Supermercado Líder",
    "city": "La Serena",
    "region": "Coquimbo",
    "country": "CL",
    "phone": "232740613",
    "latitude": -29.920879,
    "longitude": -71.2549,
    "hours": "<p>Lunes a Viernes: 09:30 - 21:30<br>\n            Sábado: 10:30 - 21:00<br>\n            Domingo: 10:30 - 18:30</p>",
    "is_24hrs": false,
    "has_parking": true
  },
  {
    "id": "0475",
    "name": "Farmacia 475",
    "address": "Av. Edmundo Eluchans N° 1850, local 1, Viña del Mar / Supermercado ",
    "city": "Viña del Mar",
    "region": "Valparaíso",
    "country": "CL",
    "phone": "232740614",
    "latitude": -32.958554,
    "longitude": -71.544213,
    "hours": "<p>Lunes a Viernes: CERRADO<br>\n            Sábado: CERRADO<br>\n            Domingo: CERRADO</p>",
    "is_24hrs": false,
    "has_parking": true
  },
  {
    "id": "0476",
    "name": "Farmacia 476",
    "address": "Av. Carretera el Cobre N° 1002, Rancagua",
    "city": "Rancagua",
    "region": "OHiggins",
    "country": "CL",
    "phone": "232740615",
    "latitude": -34.187577,
    "longitude": -70.720518,
    "hours": "<p>Lunes a Viernes: 09:00 - 19:30<br>\n            Sábado: CERRADO<br>\n            Domingo: CERRADO</p>",
    "is_24hrs": false,
    "has_parking": false
  },
  {
    "id": "0478",
    "name": "Farmacia 478",
    "address": "Av. Collín N° 698, Chillán  / Supermercado Líder",
    "city": "Chillán",
    "region": "Ñuble",
    "country": "CL",
    "phone": "232740617",
    "latitude": -36.615631,
    "longitude": -72.105503,
    "hours": "<p>Lunes a Viernes: 09:00 - 21:00<br>\n            Sábado: 09:00 - 21:00<br>\n            Domingo: 10:00 - 19:00</p>",
    "is_24hrs": false,
    "has_parking": true
  },
  {
    "id": "0480",
    "name": "Farmacia 480",
    "address": "Calle Independencia N° 611, Linares",
    "city": "Linares",
    "region": "Maule",
    "country": "CL",
    "phone": "232740619",
    "latitude": -35.846755,
    "longitude": -71.594427,
    "hours": "<p>Lunes a Viernes: 09:00 - 20:00<br>\n            Sábado: 09:00 - 20:00<br>\n            Domingo: 09:00 - 18:00</p>",
    "is_24hrs": false,
    "has_parking": false
  },
  {
    "id": "0482",
    "name": "Farmacia 482",
    "address": "Av. José Miguel Carrera N°4293",
    "city": "San Miguel",
    "region": "Región Metropolitana",
    "country": "CL",
    "phone": "232740621",
    "latitude": -33.49328,
    "longitude": -70.652475,
    "hours": "<p>Lunes a Viernes: 09:00 - 20:30<br>\n            Sábado: 10:00 - 18:00<br>\n            Domingo: CERRADO</p>",
    "is_24hrs": false,
    "has_parking": true
  },
  {
    "id": "0484",
    "name": "Farmacia 484",
    "address": "Av. Vicuña Mackenna N° 8733-A, La Florida",
    "city": "La Florida",
    "region": "Región Metropolitana",
    "country": "CL",
    "phone": "232740563",
    "latitude": -33.535403,
    "longitude": -70.593424,
    "hours": "<p>Lunes a Viernes: CERRADO<br>\n            Sábado: CERRADO<br>\n            Domingo: CERRADO</p>",
    "is_24hrs": false,
    "has_parking": true
  },
  {
    "id": "0488",
    "name": "Farmacia 488",
    "address": "Av. Pedro Fontova 7571, Local 1",
    "city": "Huechuraba",
    "region": "Región Metropolitana",
    "country": "CL",
    "phone": "232740625",
    "latitude": -33.351641,
    "longitude": -70.670269,
    "hours": "<p>Lunes a Viernes: 08:30 - 21:00<br>\n            Sábado: 08:30 - 21:00<br>\n            Domingo: 09:00 - 19:00</p>",
    "is_24hrs": false,
    "has_parking": true
  },
  {
    "id": "0490",
    "name": "Farmacia 490",
    "address": "OHiggins 114 - 116, Quillota",
    "city": "Quillota",
    "region": "Valparaíso",
    "country": "CL",
    "phone": "232740626",
    "latitude": -32.878565,
    "longitude": -71.246815,
    "hours": "<p>Lunes a Viernes: 09:00 - 20:00<br>\n            Sábado: 09:00 - 19:00<br>\n            Domingo: CERRADO</p>",
    "is_24hrs": false,
    "has_parking": false
  },
  {
    "id": "0492",
    "name": "Farmacia 492",
    "address": "Lagos N° 567, Victoria",
    "city": "Victoria",
    "region": "Araucanía",
    "country": "CL",
    "phone": "232740627",
    "latitude": -38.234396,
    "longitude": -72.332638,
    "hours": "<p>Lunes a Viernes: 09:00 - 20:00<br>\n            Sábado: 09:00 - 20:00<br>\n            Domingo: CERRADO</p>",
    "is_24hrs": false,
    "has_parking": false
  },
  {
    "id": "0495",
    "name": "Farmacia 495",
    "address": "La Concepción N°135, Local 1",
    "city": "Providencia",
    "region": "Región Metropolitana",
    "country": "CL",
    "phone": "232740629",
    "latitude": -33.424242,
    "longitude": -70.615869,
    "hours": "<p>Lunes a Viernes: 08:00 - 20:00<br>\n            Sábado: CERRADO<br>\n            Domingo: CERRADO</p>",
    "is_24hrs": false,
    "has_parking": false
  },
  {
    "id": "0496",
    "name": "Farmacia 496",
    "address": "Av. Copayapu # 2296 /Van Buren N°183-189",
    "city": "Copiapó",
    "region": "Atacama",
    "country": "CL",
    "phone": "232740630",
    "latitude": -27.381295,
    "longitude": -70.317478,
    "hours": "<p>Lunes a Viernes: 10:00 - 21:00<br>\n            Sábado: 10:00 - 20:00<br>\n            Domingo: 11:00 - 19:00</p>",
    "is_24hrs": false,
    "has_parking": true
  },
  {
    "id": "0500",
    "name": "Farmacia 500",
    "address": "Av. Las Torres Nº450, Valle Lo Campino, Quilicura",
    "city": "Quilicura",
    "region": "Región Metropolitana",
    "country": "CL",
    "phone": "232740633",
    "latitude": -33.382957,
    "longitude": -70.729482,
    "hours": "<p>Lunes a Viernes: 09:30 - 21:00<br>\n            Sábado: 09:30 - 21:00<br>\n            Domingo: 09:30 - 21:00</p>",
    "is_24hrs": false,
    "has_parking": true
  },
  {
    "id": "0507",
    "name": "Farmacia 507",
    "address": "Principe de Gales N° 8481 /Carlos Ossandon, La Reina (PAO)",
    "city": "La Reina",
    "region": "Región Metropolitana",
    "country": "CL",
    "phone": "232740681",
    "latitude": -33.440737,
    "longitude": -70.543532,
    "hours": "<p>Lunes a Viernes: 09:00 - 21:30<br>\n            Sábado: 10:00 - 21:30<br>\n            Domingo: 10:00 - 19:00</p>",
    "is_24hrs": false,
    "has_parking": true
  },
  {
    "id": "0511",
    "name": "Farmacia 511",
    "address": "Esmeralda N°315-327",
    "city": "Los Andes",
    "region": "Valparaíso",
    "country": "CL",
    "phone": "232740635",
    "latitude": -32.833362,
    "longitude": -70.597455,
    "hours": "<p>Lunes a Viernes: 08:30 - 21:00<br>\n            Sábado: 08:30 - 21:00<br>\n            Domingo: 09:00 - 19:00</p>",
    "is_24hrs": false,
    "has_parking": false
  },
  {
    "id": "0512",
    "name": "Farmacia 512",
    "address": "Calle Juan Bosco N° 2084 Locales 6 y 8 Interior Lider",
    "city": "Concepción",
    "region": "Bío Bío",
    "country": "CL",
    "phone": "232740636",
    "latitude": -36.817531,
    "longitude": -73.03344,
    "hours": "<p>Lunes a Viernes: 08:00 - 20:30<br>\n            Sábado: 08:00 - 20:30<br>\n            Domingo: 08:30 - 19:00</p>",
    "is_24hrs": false,
    "has_parking": true
  },
  {
    "id": "0514",
    "name": "Farmacia 514",
    "address": "Portugal N° 170, L2.",
    "city": "Santiago",
    "region": "Región Metropolitana",
    "country": "CL",
    "phone": "232740637",
    "latitude": -33.444408,
    "longitude": -70.63699,
    "hours": "<p>Lunes a Viernes: CERRADO<br>\n            Sábado: CERRADO<br>\n            Domingo: CERRADO</p>",
    "is_24hrs": false,
    "has_parking": false
  },
  {
    "id": "0515",
    "name": "Farmacia 515",
    "address": "1 Norte 1472, Talca",
    "city": "Talca",
    "region": "Maule",
    "country": "CL",
    "phone": "232740638",
    "latitude": -35.426964,
    "longitude": -71.655693,
    "hours": "<p>Lunes a Viernes: 09:00 - 20:00<br>\n            Sábado: 09:00 - 20:00<br>\n            Domingo: CERRADO</p>",
    "is_24hrs": false,
    "has_parking": false
  },
  {
    "id": "0517",
    "name": "Farmacia 517",
    "address": "Camino el Alba Nº11.969, Local 104 - Interior Jumbo",
    "city": "Las Condes",
    "region": "Región Metropolitana",
    "country": "CL",
    "phone": "232740639",
    "latitude": -33.401665,
    "longitude": -70.51636,
    "hours": "<p>Lunes a Viernes: 08:00 - 21:00<br>\n            Sábado: 08:00 - 21:00<br>\n            Domingo: 09:00 - 19:00</p>",
    "is_24hrs": false,
    "has_parking": true
  },
  {
    "id": "0518",
    "name": "Farmacia 518",
    "address": "Las Barrancas N°2941",
    "city": "Quilpué",
    "region": "Valparaíso",
    "country": "CL",
    "phone": "232740640",
    "latitude": -33.065435,
    "longitude": -71.422291,
    "hours": "<p>Lunes a Viernes: 08:30 - 21:00<br>\n            Sábado: 08:30 - 21:00<br>\n            Domingo: 09:00 - 19:00</p>",
    "is_24hrs": false,
    "has_parking": true
  },
  {
    "id": "0520",
    "name": "Farmacia 520",
    "address": "Camino las Flores 20217, Ciudad de los Valles",
    "city": "Pudahuel",
    "region": "Región Metropolitana",
    "country": "CL",
    "phone": "232740642",
    "latitude": -33.451764,
    "longitude": -70.84995,
    "hours": "<p>Lunes a Viernes: 09:00 - 20:00<br>\n            Sábado: 09:00 - 19:00<br>\n            Domingo: 09:00 - 19:00</p>",
    "is_24hrs": false,
    "has_parking": true
  },
  {
    "id": "0524",
    "name": "Farmacia 524",
    "address": "Av. Mariano Sanchez Fontecilla N° 12.000, local 1061 (Jumbo Peñalolén)",
    "city": "La Reina",
    "region": "Región Metropolitana",
    "country": "CL",
    "phone": "232740645",
    "latitude": -33.488578,
    "longitude": -70.557187,
    "hours": "<p>Lunes a Viernes: 09:00 - 21:00<br>\n            Sábado: 09:00 - 21:00<br>\n            Domingo: 09:00 - 19:00</p>",
    "is_24hrs": false,
    "has_parking": true
  },
  {
    "id": "0525",
    "name": "Farmacia 525",
    "address": "Bernardino Bravo N°0115",
    "city": "Buin",
    "region": "Región Metropolitana",
    "country": "CL",
    "phone": "232740646",
    "latitude": -33.733459,
    "longitude": -70.733457,
    "hours": "<p>Lunes a Viernes: 09:00 - 21:00<br>\n            Sábado: 09:00 - 21:00<br>\n            Domingo: 11:00 - 19:00</p>",
    "is_24hrs": false,
    "has_parking": true
  },
  {
    "id": "0526",
    "name": "Farmacia 526",
    "address": "Avda Alcalde José Luis Infante Larraín 1541 lote 39",
    "city": "Maipú",
    "region": "Región Metropolitana",
    "country": "CL",
    "phone": "232740647",
    "latitude": -33.560797,
    "longitude": -70.780674,
    "hours": "<p>Lunes a Viernes: 09:00 - 21:00<br>\n            Sábado: 09:00 - 19:00<br>\n            Domingo: 10:00 - 19:00</p>",
    "is_24hrs": false,
    "has_parking": true
  },
  {
    "id": "0527",
    "name": "Farmacia 527",
    "address": "Pasaje 2 N° 207, Las Monjas",
    "city": "Concepción",
    "region": "Bío Bío",
    "country": "CL",
    "phone": "232740648",
    "latitude": -36.790213,
    "longitude": -73.060455,
    "hours": "<p>Lunes a Viernes: 09:00 - 21:00<br>\n            Sábado: 10:00 - 19:00<br>\n            Domingo: 10:00 - 19:00</p>",
    "is_24hrs": false,
    "has_parking": true
  },
  {
    "id": "0530",
    "name": "B530-R13-PUDAHUE/D. TENIENTE 5",
    "address": "Avenida Diagonal Teniente Cruz N°570",
    "city": "Pudahuel",
    "region": "Región Metropolitana de Santiago",
    "country": "CL",
    "phone": null,
    "latitude": -33.455729,
    "longitude": -70.74219,
    "hours": "mon - fri: 09am - 07pm sat: 09am - 07pm sun: CERRADO",
    "is_24hrs": false,
    "has_parking": true
  },
  {
    "id": "0531",
    "name": "Farmacia 531",
    "address": "Los Clarines N° 59",
    "city": "Coquimbo",
    "region": "Coquimbo",
    "country": "CL",
    "phone": "232740651",
    "latitude": -29.978208,
    "longitude": -71.34588,
    "hours": "<p>Lunes a Viernes: 09:00 - 20:30<br>\n            Sábado: 09:00 - 20:30<br>\n            Domingo: 09:00 - 19:00</p>",
    "is_24hrs": false,
    "has_parking": true
  },
  {
    "id": "0533",
    "name": "Farmacia 533",
    "address": "Ramirez 2092 ",
    "city": "Calama",
    "region": "Antofagasta",
    "country": "CL",
    "phone": "232740652",
    "latitude": -22.461844,
    "longitude": -68.926715,
    "hours": "<p>Lunes a Viernes: 09:00 - 20:00<br>\n            Sábado: 10:00 - 19:00<br>\n            Domingo: CERRADO</p>",
    "is_24hrs": false,
    "has_parking": true
  },
  {
    "id": "0534",
    "name": "Farmacia 534",
    "address": "Calle Simón Bolívar N°4800, local 115",
    "city": "Ñuñoa",
    "region": "Región Metropolitana",
    "country": "CL",
    "phone": "232740653",
    "latitude": -33.448211,
    "longitude": -70.580717,
    "hours": "<p>Lunes a Viernes: 09:00 - 21:00<br>\n            Sábado: 10:00 - 21:00<br>\n            Domingo: 11:00 - 19:00</p>",
    "is_24hrs": false,
    "has_parking": true
  },
  {
    "id": "0535",
    "name": "Farmacia 535",
    "address": "Avda. San Juan N°113B-113C-113D, Machalí / Supermercado Tottus",
    "city": "Machalí",
    "region": "OHiggins",
    "country": "CL",
    "phone": "232740654",
    "latitude": -34.177086,
    "longitude": -70.698438,
    "hours": "<p>Lunes a Viernes: 09:00 - 21:00<br>\n            Sábado: 09:00 - 21:00<br>\n            Domingo: 10:00 - 19:00</p>",
    "is_24hrs": false,
    "has_parking": true
  },
  {
    "id": "0537",
    "name": "Farmacia 537",
    "address": "Domingo Ortiz de Rosas N° 476 Local 2 y 3 ",
    "city": "La Ligua",
    "region": "Valparaíso",
    "country": "CL",
    "phone": "232740656",
    "latitude": -32.448787,
    "longitude": -71.230663,
    "hours": "<p>Lunes a Viernes: 09:00 - 20:30<br>\n            Sábado: 09:00 - 20:30<br>\n            Domingo: CERRADO</p>",
    "is_24hrs": false,
    "has_parking": false
  },
  {
    "id": "0539",
    "name": "Farmacia 539",
    "address": "Avda. Valparaíso N°1070 local 174-175-180 / Mall Vivo",
    "city": "Viña del Mar",
    "region": "Valparaíso",
    "country": "CL",
    "phone": "232740658",
    "latitude": -33.025747,
    "longitude": -71.547571,
    "hours": "<p>Lunes a Viernes: 08:00 - 21:30<br>\n            Sábado: 08:00 - 21:30<br>\n            Domingo: 09:00 - 19:00</p>",
    "is_24hrs": false,
    "has_parking": true
  },
  {
    "id": "0540",
    "name": "Farmacia 540",
    "address": "Avda Ercilla 190, Local 1005 / Supermercado Jumbo",
    "city": "Los Ángeles",
    "region": "Bío Bío",
    "country": "CL",
    "phone": "232740659",
    "latitude": -37.472048,
    "longitude": -72.355855,
    "hours": "<p>Lunes a Viernes: 08:00 - 21:00<br>\n            Sábado: 08:00 - 21:00<br>\n            Domingo: 09:00 - 19:00</p>",
    "is_24hrs": false,
    "has_parking": true
  },
  {
    "id": "0541",
    "name": "Farmacia 541",
    "address": "Calle Rojas Magallanes N°3638",
    "city": "La Florida",
    "region": "Región Metropolitana",
    "country": "CL",
    "phone": "232740660",
    "latitude": -33.535562,
    "longitude": -70.555264,
    "hours": "<p>Lunes a Viernes: 09:00 - 21:00<br>\n            Sábado: 09:00 - 21:00<br>\n            Domingo: 09:00 - 19:00</p>",
    "is_24hrs": false,
    "has_parking": true
  },
  {
    "id": "0546",
    "name": "Farmacia 546",
    "address": "Av. Americo Vespucio 33L26, estación Intermodal la cisterna",
    "city": "La Cisterna",
    "region": "Región Metropolitana",
    "country": "CL",
    "phone": "232740663",
    "latitude": -33.537985,
    "longitude": -70.663708,
    "hours": "<p>Lunes a Viernes: 09:00 - 19:30<br>\n            Sábado: 09:00 - 14:00<br>\n            Domingo: CERRADO</p>",
    "is_24hrs": false,
    "has_parking": true
  },
  {
    "id": "0549",
    "name": "Farmacia 549",
    "address": "Avenida Ramón Freire N° 2414, Local N° 1082, Portal El Belloto / Mall El Belloto",
    "city": "Quilpué",
    "region": "Valparaíso",
    "country": "CL",
    "phone": "232740665",
    "latitude": -33.04414512117,
    "longitude": -71.4221704206,
    "hours": "<p>Lunes a Viernes: 08:30 - 20:30<br>\n            Sábado: 08:30 - 20:30<br>\n            Domingo: 09:30 - 19:00</p>",
    "is_24hrs": false,
    "has_parking": false
  },
  {
    "id": "0550",
    "name": "Farmacia 550",
    "address": "Avenida Walker Martínez Nº 3600, La Florida.",
    "city": "La Florida",
    "region": "Región Metropolitana",
    "country": "CL",
    "phone": "232740667",
    "latitude": -33.521898,
    "longitude": -70.560851,
    "hours": "<p>Lunes a Viernes: 09:00 - 21:00<br>\n            Sábado: 09:00 - 21:00<br>\n            Domingo: 09:00 - 19:00</p>",
    "is_24hrs": false,
    "has_parking": false
  },
  {
    "id": "0551",
    "name": "Farmacia 551",
    "address": "Av. Americo Vespucio N°1501, local 102, Cerrillos. / Mall Plaza Oeste",
    "city": "Cerrillos",
    "region": "Región Metropolitana",
    "country": "CL",
    "phone": "232740668",
    "latitude": -33.515002,
    "longitude": -70.717396,
    "hours": "<p>Lunes a Viernes: CERRADO<br>\n            Sábado: CERRADO<br>\n            Domingo: CERRADO</p>",
    "is_24hrs": false,
    "has_parking": false
  },
  {
    "id": "0553",
    "name": "Farmacia 553",
    "address": "Av.Salvador 1866, Local 1(esquina Sucre)",
    "city": "Ñuñoa",
    "region": "Región Metropolitana",
    "country": "CL",
    "phone": "232740670",
    "latitude": -33.4501,
    "longitude": -70.621571,
    "hours": "<p>Lunes a Viernes: 09:00 - 21:00<br>\n            Sábado: 10:00 - 17:00<br>\n            Domingo: CERRADO</p>",
    "is_24hrs": false,
    "has_parking": false
  },
  {
    "id": "0555",
    "name": "Farmacia 555",
    "address": "Guillermo Buhler N° 1799",
    "city": "Osorno",
    "region": "Los Lagos",
    "country": "CL",
    "phone": "232740671",
    "latitude": -40.587788,
    "longitude": -73.126384,
    "hours": "<p>Lunes a Viernes: 09:00 - 20:00<br>\n            Sábado: 09:00 - 20:00<br>\n            Domingo: 10:00 - 19:00</p>",
    "is_24hrs": false,
    "has_parking": false
  },
  {
    "id": "0557",
    "name": "Farmacia 557",
    "address": "Avenida San Miguel 3050, local 10",
    "city": "Talca",
    "region": "Maule",
    "country": "CL",
    "phone": "232740672",
    "latitude": -35.43443,
    "longitude": -71.630211,
    "hours": "<p>Lunes a Viernes: CERRADO<br>\n            Sábado: CERRADO<br>\n            Domingo: CERRADO</p>",
    "is_24hrs": false,
    "has_parking": true
  },
  {
    "id": "0561",
    "name": "Farmacia 561",
    "address": "Calle Mar Tirreno Nº 3349, local Nº 009, Peñalolén. / Mall Paseo Quilin",
    "city": "Peñalolén",
    "region": "Región Metropolitana",
    "country": "CL",
    "phone": "232740675",
    "latitude": -33.488294,
    "longitude": -70.578851,
    "hours": "<p>Lunes a Viernes: 09:00 - 20:30<br>\n            Sábado: 09:00 - 17:00<br>\n            Domingo: CERRADO</p>",
    "is_24hrs": false,
    "has_parking": true
  },
  {
    "id": "0564",
    "name": "Farmacia 564",
    "address": "Avda. Apoquindo N° 4411, local 170, 172, 174 Sub Centro, Las Condes.",
    "city": "Las Condes",
    "region": "Región Metropolitana",
    "country": "CL",
    "phone": "232740611",
    "latitude": -33.413777,
    "longitude": -70.58321,
    "hours": "<p>Lunes a Viernes: 08:00 - 21:00<br>\n            Sábado: 10:00 - 18:00<br>\n            Domingo: CERRADO</p>",
    "is_24hrs": false,
    "has_parking": false
  },
  {
    "id": "0567",
    "name": "Farmacia 567",
    "address": "Avda. Guillermo Ulriksen 3128 Local # 2 / Supermercado Líder",
    "city": "La Serena",
    "region": "Coquimbo",
    "country": "CL",
    "phone": "232740679",
    "latitude": -29.94482,
    "longitude": -71.241531,
    "hours": "<p>Lunes a Viernes: 09:00 - 20:00<br>\n            Sábado: 09:00 - 20:00<br>\n            Domingo: 09:00 - 19:00</p>",
    "is_24hrs": false,
    "has_parking": true
  },
  {
    "id": "0569",
    "name": "Farmacia 569",
    "address": "Avda. Universidad de Antofagasta N° 2751",
    "city": "Antofagasta",
    "region": "Antofagasta",
    "country": "CL",
    "phone": "232740680",
    "latitude": -23.69955,
    "longitude": -70.422766,
    "hours": "<p>Lunes a Viernes: CERRADO<br>\n            Sábado: CERRADO<br>\n            Domingo: CERRADO</p>",
    "is_24hrs": false,
    "has_parking": false
  },
  {
    "id": "0570",
    "name": "Farmacia 570",
    "address": "Av. Vicuña Mackenna N° 3361 local 2 (Interior Lider)",
    "city": "San Joaquín",
    "region": "Región Metropolitana",
    "country": "CL",
    "phone": "232740682",
    "latitude": -33.483385,
    "longitude": -70.620781,
    "hours": "<p>Lunes a Viernes: 08:00 - 21:30<br>\n            Sábado: 08:00 - 21:30<br>\n            Domingo: 08:30 - 19:00</p>",
    "is_24hrs": false,
    "has_parking": true
  },
  {
    "id": "0571",
    "name": "Farmacia 571",
    "address": "Avenida Sor Vicenta N° 2575, local 6. / Supermercado Líder",
    "city": "Los Ángeles",
    "region": "Bío Bío",
    "country": "CL",
    "phone": "232740674",
    "latitude": -37.445159,
    "longitude": -72.331851,
    "hours": "<p>Lunes a Viernes: 09:00 - 21:00<br>\n            Sábado: 09:00 - 21:00<br>\n            Domingo: 09:00 - 19:00</p>",
    "is_24hrs": false,
    "has_parking": false
  },
  {
    "id": "0572",
    "name": "Farmacia 572",
    "address": "Consistorial N° 2100 locales 219-220, Peñalolen.",
    "city": "Peñalolén",
    "region": "Región Metropolitana",
    "country": "CL",
    "phone": "232740683",
    "latitude": -33.479151,
    "longitude": -70.543871,
    "hours": "<p>Lunes a Viernes: 08:30 - 21:00<br>\n            Sábado: 08:30 - 21:00<br>\n            Domingo: 10:00 - 19:00</p>",
    "is_24hrs": false,
    "has_parking": false
  },
  {
    "id": "0573",
    "name": "Farmacia 573",
    "address": "La Calera (JJ perez) N° 199",
    "city": "Calera",
    "region": "Valparaíso",
    "country": "CL",
    "phone": "232740684",
    "latitude": -32.788222,
    "longitude": -71.189454,
    "hours": "<p>Lunes a Viernes: 09:00 - 19:00<br>\n            Sábado: 09:00 - 19:00<br>\n            Domingo: CERRADO</p>",
    "is_24hrs": false,
    "has_parking": false
  },
  {
    "id": "0575",
    "name": "Farmacia 575",
    "address": "Avda. El Bosque Norte  0134",
    "city": "Las Condes",
    "region": "Región Metropolitana",
    "country": "CL",
    "phone": "232740685",
    "latitude": -33.415914,
    "longitude": -70.600719,
    "hours": "<p>Lunes a Viernes: CERRADO<br>\n            Sábado: CERRADO<br>\n            Domingo: CERRADO</p>",
    "is_24hrs": false,
    "has_parking": false
  },
  {
    "id": "0576",
    "name": "Farmacia 576",
    "address": "Hijuelas n°3 San Francisco Mostazal, ( Shell ruta 5 Sur) VI región",
    "city": "Rancagua",
    "region": "OHiggins",
    "country": "CL",
    "phone": "232740686",
    "latitude": -33.976517,
    "longitude": -70.705562,
    "hours": "<p>Lunes a Viernes: 10:00 - 18:00<br>\n            Sábado: 10:00 - 18:00<br>\n            Domingo: 10:00 - 18:00</p>",
    "is_24hrs": false,
    "has_parking": true
  },
  {
    "id": "0578",
    "name": "Farmacia 578",
    "address": "Caparrrosa 355 Local 1, Antofagasta / Supermercado Líder",
    "city": "Antofagasta",
    "region": "Antofagasta",
    "country": "CL",
    "phone": "232740688",
    "latitude": -23.565108,
    "longitude": -70.390692,
    "hours": "<p>Lunes a Viernes: 09:00 - 21:00<br>\n            Sábado: 09:00 - 21:00<br>\n            Domingo: 10:00 - 19:00</p>",
    "is_24hrs": false,
    "has_parking": true
  },
  {
    "id": "0580",
    "name": "Farmacia 580",
    "address": "Calle Colon 196 - Local 1008 / Mall Talcahuano",
    "city": "Talcahuano",
    "region": "Bío Bío",
    "country": "CL",
    "phone": "232740690",
    "latitude": -36.712553,
    "longitude": -73.114572,
    "hours": "<p>Lunes a Viernes: 09:00 - 20:00<br>\n            Sábado: 09:00 - 20:00<br>\n            Domingo: 09:00 - 19:00</p>",
    "is_24hrs": false,
    "has_parking": true
  },
  {
    "id": "0581",
    "name": "Farmacia 581",
    "address": "El Arenal #411, talca local 1027 / Supermercado Jumbo",
    "city": "Talca",
    "region": "Maule",
    "country": "CL",
    "phone": "232740691",
    "latitude": -35.429339,
    "longitude": -71.671043,
    "hours": "<p>Lunes a Viernes: 09:00 - 20:00<br>\n            Sábado: 09:00 - 20:00<br>\n            Domingo: 10:00 - 19:00</p>",
    "is_24hrs": false,
    "has_parking": true
  },
  {
    "id": "0583",
    "name": "Farmacia 583",
    "address": "Caletera N° 1502, Local 3. Ruta 68 Placilla",
    "city": "Valparaíso",
    "region": "Valparaíso",
    "country": "CL",
    "phone": "232740692",
    "latitude": -33.121578,
    "longitude": -71.561884,
    "hours": "<p>Lunes a Viernes: 08:30 - 21:00<br>\n            Sábado: 09:00 - 21:00<br>\n            Domingo: 10:00 - 19:00</p>",
    "is_24hrs": false,
    "has_parking": false
  },
  {
    "id": "0584",
    "name": "Farmacia 584",
    "address": "Marcoleta 328",
    "city": "Santiago",
    "region": "Región Metropolitana",
    "country": "CL",
    "phone": "232740693",
    "latitude": -33.44222,
    "longitude": -70.639381,
    "hours": "<p>Lunes a Viernes: 09:00 - 20:00<br>\n            Sábado: CERRADO<br>\n            Domingo: CERRADO</p>",
    "is_24hrs": false,
    "has_parking": false
  },
  {
    "id": "0585",
    "name": "Farmacia 585",
    "address": "Avda Regimiento Arica 6145 Local # 5 / Supermercado Líder",
    "city": "La Serena",
    "region": "Coquimbo",
    "country": "CL",
    "phone": "232740694",
    "latitude": -29.946308,
    "longitude": -71.269341,
    "hours": "<p>Lunes a Viernes: 09:00 - 20:30<br>\n            Sábado: 09:00 - 20:30<br>\n            Domingo: 09:00 - 19:00</p>",
    "is_24hrs": false,
    "has_parking": true
  },
  {
    "id": "0589",
    "name": "Farmacia 589",
    "address": "Pedro Aguirre Cerda Nº 9400. / Supermercado ",
    "city": "Antofagasta",
    "region": "Antofagasta",
    "country": "CL",
    "phone": "232740698",
    "latitude": -23.579957,
    "longitude": -70.390413,
    "hours": "<p>Lunes a Viernes: 09:00 - 20:00<br>\n            Sábado: 09:00 - 18:00<br>\n            Domingo: 10:00 - 18:00</p>",
    "is_24hrs": false,
    "has_parking": false
  },
  {
    "id": "0593",
    "name": "Farmacia 593",
    "address": "Av. Portales Nº 3698, local N°1236. / Supermercado Jumbo",
    "city": "San Bernardo",
    "region": "Región Metropolitana",
    "country": "CL",
    "phone": "232740700",
    "latitude": -33.633541,
    "longitude": -70.707868,
    "hours": "<p>Lunes a Viernes: 09:00 - 20:00<br>\n            Sábado: 09:00 - 20:00<br>\n            Domingo: 09:00 - 19:00</p>",
    "is_24hrs": false,
    "has_parking": true
  },
  {
    "id": "0595",
    "name": "Farmacia 595",
    "address": "Av. Jorge Alessandri N°20040 (Mall Plaza Sur), San Bernardo.",
    "city": "San Bernardo",
    "region": "Región Metropolitana",
    "country": "CL",
    "phone": "232740701",
    "latitude": -33.630754,
    "longitude": -70.709445,
    "hours": "<p>Lunes a Viernes: CERRADO<br>\n            Sábado: CERRADO<br>\n            Domingo: CERRADO</p>",
    "is_24hrs": false,
    "has_parking": false
  },
  {
    "id": "0596",
    "name": "Farmacia 596",
    "address": "Av. Camilo Henriquez N° 3682, Mall Plaza Tobalaba",
    "city": "Puente Alto",
    "region": "Región Metropolitana",
    "country": "CL",
    "phone": "232740702",
    "latitude": -33.569626,
    "longitude": -70.557139,
    "hours": "<p>Lunes a Viernes: 09:00 - 20:00<br>\n            Sábado: 09:00 - 21:00<br>\n            Domingo: 10:00 - 19:00</p>",
    "is_24hrs": false,
    "has_parking": true
  },
  {
    "id": "0597",
    "name": "Farmacia 597",
    "address": "Av. Larrain N° 5862, Locales N°1092-1096 (subterraneo), Mall Plaza Egaña",
    "city": "La Reina",
    "region": "Región Metropolitana",
    "country": "CL",
    "phone": "232740703",
    "latitude": -33.4532,
    "longitude": -70.569307,
    "hours": "<p>Lunes a Viernes: 10:00 - 20:00<br>\n            Sábado: 10:30 - 21:00<br>\n            Domingo: 11:00 - 19:00</p>",
    "is_24hrs": false,
    "has_parking": true
  },
  {
    "id": "0603",
    "name": "Farmacia 603",
    "address": "Calle Serrano N°395, Local 13, Melipilla. / Supermercado Mall Vivo",
    "city": "Melipilla",
    "region": "Región Metropolitana",
    "country": "CL",
    "phone": "232740722",
    "latitude": -33.684965,
    "longitude": -71.213846,
    "hours": "<p>Lunes a Viernes: 09:00 - 20:00<br>\n            Sábado: 09:00 - 20:00<br>\n            Domingo: 09:00 - 19:00</p>",
    "is_24hrs": false,
    "has_parking": true
  },
  {
    "id": "0604",
    "name": "Farmacia 604",
    "address": "Barros Arana N° 308, Local N° 3. / Supermercado Líder",
    "city": "Temuco",
    "region": "Araucanía",
    "country": "CL",
    "phone": "232740727",
    "latitude": -38.732025,
    "longitude": -72.574353,
    "hours": "<p>Lunes a Viernes: 09:00 - 21:00<br>\n            Sábado: 09:00 - 21:00<br>\n            Domingo: 09:00 - 19:00</p>",
    "is_24hrs": false,
    "has_parking": false
  },
  {
    "id": "0605",
    "name": "Farmacia 605",
    "address": "Avda. Jorge Alessandri Nº 3177, L-6 Boulevard Mall Plaza.",
    "city": "Talcahuano",
    "region": "Bío Bío",
    "country": "CL",
    "phone": "232740732",
    "latitude": -36.780275,
    "longitude": -73.05863,
    "hours": "<p>Lunes a Viernes: 10:00 - 21:30<br>\n            Sábado: 10:00 - 20:30<br>\n            Domingo: 10:00 - 19:00</p>",
    "is_24hrs": false,
    "has_parking": false
  },
  {
    "id": "0607",
    "name": "Farmacia 607",
    "address": "Huérfanos N°811",
    "city": "Santiago",
    "region": "Región Metropolitana",
    "country": "CL",
    "phone": "232740741",
    "latitude": -33.439302,
    "longitude": -70.648313,
    "hours": "<p>Lunes a Viernes: 09:00 - 20:00<br>\n            Sábado: CERRADO<br>\n            Domingo: CERRADO</p>",
    "is_24hrs": false,
    "has_parking": false
  },
  {
    "id": "0611",
    "name": "Farmacia 611",
    "address": "Circunvalación Oriente Nº 1055, locales 101, 102 y 103 (Mall Plaza Maule).",
    "city": "Talca",
    "region": "Maule",
    "country": "CL",
    "phone": "232740708",
    "latitude": -35.433068,
    "longitude": -71.631181,
    "hours": "<p>Lunes a Viernes: 10:00 - 20:00<br>\n            Sábado: 10:00 - 20:00<br>\n            Domingo: 10:00 - 19:00</p>",
    "is_24hrs": false,
    "has_parking": false
  },
  {
    "id": "0613",
    "name": "Farmacia 613",
    "address": "Av. del valle N° 9790 local 8, Chamisero, Colina.",
    "city": "Colina",
    "region": "Región Metropolitana",
    "country": "CL",
    "phone": "232740687",
    "latitude": -33.303452,
    "longitude": -70.667816,
    "hours": "<p>Lunes a Viernes: 09:00 - 21:00<br>\n            Sábado: 09:00 - 21:00<br>\n            Domingo: 09:00 - 19:00</p>",
    "is_24hrs": false,
    "has_parking": false
  },
  {
    "id": "0614",
    "name": "Farmacia 614",
    "address": "Avenida La Dehesa N°1445, Local 1020 / Supermercado Jumbo",
    "city": "Lo Barnechea",
    "region": "Región Metropolitana",
    "country": "CL",
    "phone": "232740709",
    "latitude": -33.359773,
    "longitude": -70.516477,
    "hours": "<p>Lunes a Viernes: 08:00 - 21:00<br>\n            Sábado: 08:00 - 21:00<br>\n            Domingo: 09:00 - 19:00</p>",
    "is_24hrs": false,
    "has_parking": false
  },
  {
    "id": "0615",
    "name": "Farmacia 615",
    "address": "Avenida Chorrillos N°615, local 1 / Supermercado Líder",
    "city": "San Javier",
    "region": "Maule",
    "country": "CL",
    "phone": "232740562",
    "latitude": -35.600102,
    "longitude": -71.732551,
    "hours": "<p>Lunes a Viernes: 09:00 - 20:00<br>\n            Sábado: 09:00 - 20:00<br>\n            Domingo: 09:00 - 19:00</p>",
    "is_24hrs": false,
    "has_parking": false
  },
  {
    "id": "0617",
    "name": "Farmacia 617",
    "address": "Av Edmundo Perez Zujovic N° 5470 (Acceso Supermercado Lider)",
    "city": "Antofagasta",
    "region": "Antofagasta",
    "country": "CL",
    "phone": "232740705",
    "latitude": -23.61863,
    "longitude": -70.3924,
    "hours": "<p>Lunes a Viernes: 10:00 - 19:00<br>\n            Sábado: 10:00 - 19:00<br>\n            Domingo: CERRADO</p>",
    "is_24hrs": false,
    "has_parking": true
  },
  {
    "id": "0618",
    "name": "Farmacia 618",
    "address": "Gerónimo de Alderete N° 1291, Vitacura",
    "city": "Vitacura",
    "region": "Región Metropolitana",
    "country": "CL",
    "phone": "232740711",
    "latitude": -33.391266,
    "longitude": -70.562954,
    "hours": "<p>Lunes a Viernes: 09:00 - 21:00<br>\n            Sábado: 10:00 - 14:00<br>\n            Domingo: CERRADO</p>",
    "is_24hrs": false,
    "has_parking": false
  },
  {
    "id": "0620",
    "name": "Farmacia 620",
    "address": "Chicureo N° 130 Strip Center Puertas de Chicureo, Colina",
    "city": "Colina",
    "region": "Región Metropolitana",
    "country": "CL",
    "phone": "232740713",
    "latitude": -33.286055,
    "longitude": -70.699425,
    "hours": "<p>Lunes a Viernes: 09:00 - 21:00<br>\n            Sábado: 09:00 - 21:00<br>\n            Domingo: 09:00 - 19:00</p>",
    "is_24hrs": false,
    "has_parking": false
  },
  {
    "id": "0621",
    "name": "Farmacia 621",
    "address": "Avda. Los Carrera Nº 3791/esq. El Inca. Interior Sup. Líder.",
    "city": "Copiapó",
    "region": "Atacama",
    "country": "CL",
    "phone": "232740714",
    "latitude": -27.38965,
    "longitude": -70.302753,
    "hours": "<p>Lunes a Viernes: 09:00 - 20:30<br>\n            Sábado: 09:00 - 20:30<br>\n            Domingo: 09:00 - 19:00</p>",
    "is_24hrs": false,
    "has_parking": false
  },
  {
    "id": "0622",
    "name": "Farmacia 622",
    "address": "Los Pablos  N° 1880, local 9",
    "city": "Temuco",
    "region": "Araucanía",
    "country": "CL",
    "phone": "232740715",
    "latitude": -38.746921,
    "longitude": -72.643737,
    "hours": "<p>Lunes a Viernes: 10:00 - 20:00<br>\n            Sábado: 10:00 - 20:00<br>\n            Domingo: 10:00 - 19:00</p>",
    "is_24hrs": false,
    "has_parking": false
  },
  {
    "id": "0623",
    "name": "Farmacia 623",
    "address": "Avenida Manantiales Nº 955, local 104. / Supermercado Tottus",
    "city": "Concón",
    "region": "Valparaíso",
    "country": "CL",
    "phone": "232740716",
    "latitude": -32.929958,
    "longitude": -71.518378,
    "hours": "<p>Lunes a Viernes: 08:30 - 21:00<br>\n            Sábado: 09:00 - 21:00<br>\n            Domingo: 09:00 - 19:00</p>",
    "is_24hrs": false,
    "has_parking": true
  },
  {
    "id": "0624",
    "name": "Farmacia 624",
    "address": "Avenida del Parque N° 4722 local 12 y 13 (Arauco express) ",
    "city": "Huechuraba",
    "region": "Región Metropolitana",
    "country": "CL",
    "phone": "232740717",
    "latitude": -33.390037,
    "longitude": -70.620096,
    "hours": "<p>Lunes a Viernes: 09:00 - 20:00<br>\n            Sábado: CERRADO<br>\n            Domingo: CERRADO</p>",
    "is_24hrs": false,
    "has_parking": false
  },
  {
    "id": "0625",
    "name": "Farmacia 625",
    "address": "Estrella de Chile Nº 191 local 1 y 3, Quintero.",
    "city": "Quintero",
    "region": "Valparaíso",
    "country": "CL",
    "phone": "232740718",
    "latitude": -32.785308,
    "longitude": -71.52743,
    "hours": "<p>Lunes a Viernes: 09:30 - 19:00<br>\n            Sábado: 09:30 - 19:00<br>\n            Domingo: CERRADO</p>",
    "is_24hrs": false,
    "has_parking": false
  },
  {
    "id": "0629",
    "name": "Farmacia 629",
    "address": "Avenida Jose Alcalde Delano N° 12205 (Segundo Nivel. Clinica Alemana)",
    "city": "Lo Barnechea",
    "region": "Región Metropolitana",
    "country": "CL",
    "phone": "232740721",
    "latitude": -33.353679,
    "longitude": -70.524877,
    "hours": "<p>Lunes a Viernes: 08:00 - 20:30<br>\n            Sábado: 08:00 - 14:30<br>\n            Domingo: CERRADO</p>",
    "is_24hrs": false,
    "has_parking": false
  },
  {
    "id": "0630",
    "name": "Farmacia 630",
    "address": "Av. José Pedro Alessandri 1166 / Mall Portal Ñuñoa",
    "city": "Ñuñoa",
    "region": "Región Metropolitana",
    "country": "CL",
    "phone": "232740723",
    "latitude": -33.464922,
    "longitude": -70.598166,
    "hours": "<p>Lunes a Viernes: 09:00 - 20:30<br>\n            Sábado: 09:00 - 20:30<br>\n            Domingo: 09:30 - 19:00</p>",
    "is_24hrs": false,
    "has_parking": false
  },
  {
    "id": "0634",
    "name": "Farmacia 634",
    "address": "Pedro Fontova N° 7810, local 9, Huechuraba.",
    "city": "Huechuraba",
    "region": "Región Metropolitana",
    "country": "CL",
    "phone": "232740724",
    "latitude": -33.345228,
    "longitude": -70.670371,
    "hours": "<p>Lunes a Viernes: CERRADO<br>\n            Sábado: CERRADO<br>\n            Domingo: CERRADO</p>",
    "is_24hrs": false,
    "has_parking": false
  },
  {
    "id": "0636",
    "name": "Farmacia 636",
    "address": "A. FCO. CASTILLO VELASCO",
    "city": "La Reina",
    "region": "Región Metropolitana",
    "country": "CL",
    "phone": null,
    "latitude": -33.451245,
    "longitude": -70.539672,
    "hours": "<p>Lunes a Viernes: 09:00 - 18:00<br>\n            Sábado: CERRADO<br>\n            Domingo: CERRADO</p>",
    "is_24hrs": false,
    "has_parking": true
  },
  {
    "id": "0638",
    "name": "Farmacia 638",
    "address": "Benjamín Vicuña Mackenna Nº1, esquina Ariztia Poniente, local Nº12.",
    "city": "Ovalle",
    "region": "Coquimbo",
    "country": "CL",
    "phone": "232740726",
    "latitude": -30.601793,
    "longitude": -71.198241,
    "hours": "<p>Lunes a Viernes: 09:00 - 20:00<br>\n            Sábado: 09:00 - 19:00<br>\n            Domingo: CERRADO</p>",
    "is_24hrs": false,
    "has_parking": false
  },
  {
    "id": "0642",
    "name": "Farmacia 642",
    "address": "AVDA BERNARDO OHIGGINS 555 LOCAL 1 (INTERIOR LIDER)",
    "city": "Buin",
    "region": "Región Metropolitana",
    "country": "CL",
    "phone": "232740782",
    "latitude": -33.734141,
    "longitude": -70.749025,
    "hours": "<p>Lunes a Viernes: 09:00 - 21:30<br>\n            Sábado: 09:00 - 21:30<br>\n            Domingo: 09:00 - 19:00</p>",
    "is_24hrs": false,
    "has_parking": false
  },
  {
    "id": "0643",
    "name": "Farmacia 643",
    "address": "Avenida Pedro de Valdivia N° 904",
    "city": "Concepción",
    "region": "Bío Bío",
    "country": "CL",
    "phone": "232740728",
    "latitude": -36.84473,
    "longitude": -73.05245,
    "hours": "<p>Lunes a Viernes: 10:00 - 20:00<br>\n            Sábado: 10:00 - 16:00<br>\n            Domingo: CERRADO</p>",
    "is_24hrs": false,
    "has_parking": false
  },
  {
    "id": "0644",
    "name": "Farmacia 644",
    "address": "Calle Jose Manuel Balmaceda N° 124, Buin.",
    "city": "Buin",
    "region": "Región Metropolitana",
    "country": "CL",
    "phone": "232740729",
    "latitude": -33.733419,
    "longitude": -70.738277,
    "hours": "<p>Lunes a Viernes: 09:00 - 21:00<br>\n            Sábado: 09:00 - 14:00<br>\n            Domingo: CERRADO</p>",
    "is_24hrs": false,
    "has_parking": false
  },
  {
    "id": "0647",
    "name": "Farmacia 647",
    "address": "Teresa Wilms Montt N° 2263 locales 1168-1172 y 1176 / Supermercado Líder",
    "city": "Iquique",
    "region": "Tarapacá",
    "country": "CL",
    "phone": "232740511",
    "latitude": -20.268707,
    "longitude": -70.126862,
    "hours": "<p>Lunes a Viernes: 09:00 - 21:00<br>\n            Sábado: 09:00 - 21:00<br>\n            Domingo: 09:00 - 19:00</p>",
    "is_24hrs": false,
    "has_parking": false
  },
  {
    "id": "0650",
    "name": "Farmacia 650",
    "address": "Isidro Gaete  N°475 Local 2, Puchuncaví",
    "city": "Puchuncaví",
    "region": "Valparaíso",
    "country": "CL",
    "phone": "232740733",
    "latitude": -32.633666,
    "longitude": -71.425801,
    "hours": "<p>Lunes a Viernes: 09:00 - 19:00<br>\n            Sábado: 09:00 - 19:00<br>\n            Domingo: 09:00 - 19:00</p>",
    "is_24hrs": false,
    "has_parking": false
  },
  {
    "id": "0652",
    "name": "Farmacia 652",
    "address": "Av. Fermín Vivaceta 1018-1030 L8 y 9, Independecia ",
    "city": "Independencia",
    "region": "Región Metropolitana",
    "country": "CL",
    "phone": "232740735",
    "latitude": -33.418899,
    "longitude": -70.663498,
    "hours": "<p>Lunes a Viernes: 09:00 - 21:00<br>\n            Sábado: 10:00 - 21:00<br>\n            Domingo: 10:00 - 19:00</p>",
    "is_24hrs": false,
    "has_parking": false
  },
  {
    "id": "0654",
    "name": "Farmacia 654",
    "address": "Av. Presidente Ibañez N° 1433 / Supermercado Líder",
    "city": "Puerto Montt",
    "region": "Los Lagos",
    "country": "CL",
    "phone": "232740736",
    "latitude": -41.470801,
    "longitude": -72.965697,
    "hours": "<p>Lunes a Viernes: 09:30 - 21:00<br>\n            Sábado: 09:30 - 21:00<br>\n            Domingo: 10:00 - 19:00</p>",
    "is_24hrs": false,
    "has_parking": false
  },
  {
    "id": "0656",
    "name": "Farmacia 656",
    "address": "Av. Andres Bello 2447, Local 192 (Costanera Center )",
    "city": "Providencia",
    "region": "Región Metropolitana",
    "country": "CL",
    "phone": "232740664",
    "latitude": -33.417776,
    "longitude": -70.607806,
    "hours": "<p>Lunes a Viernes: 10:00 - 20:30<br>\n            Sábado: 10:00 - 20:30<br>\n            Domingo: 10:00 - 19:00</p>",
    "is_24hrs": false,
    "has_parking": false
  },
  {
    "id": "0659",
    "name": "Farmacia 659",
    "address": "Avda. Vespucio N°1737, Local H-104, Huechuraba / Mall Plaza Norte",
    "city": "Huechuraba",
    "region": "Región Metropolitana",
    "country": "CL",
    "phone": "232740737",
    "latitude": -33.366155,
    "longitude": -70.67847,
    "hours": "<p>Lunes a Viernes: 08:30 - 21:00<br>\n            Sábado: 08:30 - 21:00<br>\n            Domingo: 09:00 - 19:00</p>",
    "is_24hrs": false,
    "has_parking": false
  },
  {
    "id": "0668",
    "name": "Farmacia 668",
    "address": "Las Industrias N° 15560 Local 2 y 3, Maipú / Supermercado Líder",
    "city": "Maipú",
    "region": "Región Metropolitana",
    "country": "CL",
    "phone": "232740598",
    "latitude": -33.54241,
    "longitude": -70.77162,
    "hours": "<p>Lunes a Viernes: 09:00 - 21:00<br>\n            Sábado: 09:00 - 21:00<br>\n            Domingo: 09:00 - 19:00</p>",
    "is_24hrs": false,
    "has_parking": true
  },
  {
    "id": "0669",
    "name": "Farmacia 669",
    "address": "Camino Troncal N°1561, Local 1, Peñablanca / Supermercado Líder",
    "city": "Villa Alemana",
    "region": "Valparaíso",
    "country": "CL",
    "phone": "232740740",
    "latitude": -33.047731,
    "longitude": -71.348395,
    "hours": "<p>Lunes a Viernes: 08:30 - 21:00<br>\n            Sábado: 09:00 - 21:00<br>\n            Domingo: 10:00 - 19:00</p>",
    "is_24hrs": false,
    "has_parking": true
  },
  {
    "id": "0670",
    "name": "Farmacia 670",
    "address": "Av. Vicuña Mackenna 7110 local 108 - 112, La Florida.",
    "city": "La Florida",
    "region": "Región Metropolitana",
    "country": "CL",
    "phone": "232740593",
    "latitude": -33.51705,
    "longitude": -70.59692,
    "hours": "<p>Lunes a Viernes: 09:00 - 20:30<br>\n            Sábado: 09:00 - 20:30<br>\n            Domingo: 09:00 - 19:00</p>",
    "is_24hrs": false,
    "has_parking": false
  },
  {
    "id": "0681",
    "name": "Farmacia 681",
    "address": "Maipu N° 110 (Boulervard Mall Plaza Copiapo), Copiapo",
    "city": "Copiapó",
    "region": "Atacama",
    "country": "CL",
    "phone": null,
    "latitude": -27.36902,
    "longitude": -70.33954,
    "hours": "<p>Lunes a Viernes: 10:00 - 20:30<br>\n            Sábado: 10:00 - 20:00<br>\n            Domingo: 10:00 - 20:00</p>",
    "is_24hrs": false,
    "has_parking": true
  },
  {
    "id": "0683",
    "name": "Farmacia 683",
    "address": "Los Mañios 4455, San Pedro De La Paz, Supermercado Lider",
    "city": "San Pedro de la Paz",
    "region": "Bío Bío",
    "country": "CL",
    "phone": null,
    "latitude": -36.8581999,
    "longitude": -73.1357145,
    "hours": "<p>Lunes a Viernes: 09:00 - 21:00<br>\n            Sábado: 09:00 - 21:00<br>\n            Domingo: 09:00 - 21:00</p>",
    "is_24hrs": false,
    "has_parking": false
  },
  {
    "id": "0684",
    "name": "Farmacia 684",
    "address": "LAUTARO 78-RUTA 60CH",
    "city": "Calera",
    "region": "Valparaíso",
    "country": "CL",
    "phone": null,
    "latitude": -32.79698,
    "longitude": -71.20399,
    "hours": "<p>Lunes a Viernes: 09:00 - 20:30<br>\n            Sábado: 09:00 - 20:30<br>\n            Domingo: 09:00 - 20:30</p>",
    "is_24hrs": false,
    "has_parking": true
  },
  {
    "id": "0685",
    "name": "Farmacia 685",
    "address": "Avenida Apoquindo 2730",
    "city": "Las Condes",
    "region": "Región Metropolitana",
    "country": "CL",
    "phone": null,
    "latitude": -33.41754,
    "longitude": -70.60076,
    "hours": "<p>Lunes a Viernes: 08:00 - 20:00<br>\n            Sábado: 08:00 - 20:00<br>\n            Domingo: 08:00 - 20:00</p>",
    "is_24hrs": false,
    "has_parking": true
  },
  {
    "id": "0686",
    "name": "Farmacia 686",
    "address": "Av. Independencia 565, local TM101",
    "city": "Independencia",
    "region": "Región Metropolitana",
    "country": "CL",
    "phone": null,
    "latitude": -39.818599,
    "longitude": -73.233991,
    "hours": "<p>Lunes a Viernes: 10:00 - 20:00<br>\n            Sábado: 10:00 - 20:00<br>\n            Domingo: 11:00 - 20:00</p>",
    "is_24hrs": false,
    "has_parking": true
  },
  {
    "id": "0688",
    "name": "Farmacia 688",
    "address": "Ignacio Serrano 574, Castro, Los Lagos (local 101C)Castro",
    "city": "Castro",
    "region": "Los Lagos",
    "country": "CL",
    "phone": null,
    "latitude": -42.479539,
    "longitude": -73.762444,
    "hours": "<p>Lunes a Viernes: 10:30 - 20:30<br>\n            Sábado: 10:30 - 20:30<br>\n            Domingo: 11:00 - 20:30</p>",
    "is_24hrs": false,
    "has_parking": true
  },
  {
    "id": "0689",
    "name": "Farmacia 689",
    "address": "Errázuriz 1040, Valdivia",
    "city": "Valdivia",
    "region": "Los Ríos",
    "country": "CL",
    "phone": null,
    "latitude": -39.818258,
    "longitude": -73.234761,
    "hours": "<p>Lunes a Viernes: 09:00 - 20:30<br>\n            Sábado: 10:00 - 20:30<br>\n            Domingo: 10:00 - 20:30</p>",
    "is_24hrs": false,
    "has_parking": true
  },
  {
    "id": "0690",
    "name": "Farmacia 690",
    "address": "Av. Ramón Picarte N°422, local nivel -01, Valdivia",
    "city": "Valdivia",
    "region": "Los Ríos",
    "country": "CL",
    "phone": null,
    "latitude": -39.814401,
    "longitude": -73.243456,
    "hours": "<p>Lunes a Viernes: 10:00 - 20:00<br>\n            Sábado: 10:00 - 20:00<br>\n            Domingo: 10:00 - 20:00</p>",
    "is_24hrs": false,
    "has_parking": true
  },
  {
    "id": "0695",
    "name": "Farmacia 695",
    "address": "AV. CONCÓN REÑACA",
    "city": "Concón",
    "region": "Valparaíso",
    "country": "CL",
    "phone": null,
    "latitude": -32.939971,
    "longitude": -71.546193,
    "hours": "<p>Lunes a Viernes: 09:00 - 21:00<br>\n            Sábado: 09:00 - 21:00<br>\n            Domingo: 09:00 - 21:00</p>",
    "is_24hrs": false,
    "has_parking": true
  },
  {
    "id": "0698",
    "name": "Farmacia 698",
    "address": "AVDA. GASTÓN HAMEL NIETO",
    "city": "Viña del Mar",
    "region": "Valparaíso",
    "country": "CL",
    "phone": null,
    "latitude": -32.95896,
    "longitude": -71.539549,
    "hours": "<p>Lunes a Viernes: 08:30 - 21:00<br>\n            Sábado: 09:00 - 21:00<br>\n            Domingo: 09:00 - 21:00</p>",
    "is_24hrs": false,
    "has_parking": true
  },
  {
    "id": "0777",
    "name": "Farmacia 777",
    "address": "Av. Macul N°2555 / Gregorio de la Fuente",
    "city": "Macul",
    "region": "Región Metropolitana de Santiago",
    "country": "CL",
    "phone": "232740777",
    "latitude": -33.478043,
    "longitude": -70.59901,
    "hours": "<p>Lunes a Viernes: 08:00 - 23:59<br>\n            Sábado: 08:00 - 23:59<br>\n            Domingo: 08:00 - 23:59</p>",
    "is_24hrs": false,
    "has_parking": false
  },
  {
    "id": "0850",
    "name": "B850-R13-STGO/ALAMEDA 980",
    "address": "Av. Libertador Bernardo OHiggins N° 980 L 1, 2, 40 ",
    "city": "Santiago",
    "region": "Región Metropolitana de Santiago",
    "country": "CL",
    "phone": null,
    "latitude": -33.444029,
    "longitude": -70.650287,
    "hours": "mon - fri: 09am - 07pm sat: CERRADO sun: CERRADO",
    "is_24hrs": false,
    "has_parking": false
  },
  {
    "id": "0856",
    "name": "Farmacia 856",
    "address": "El Roble Nº 770 / Local 6 / Mall Arauco Chillán",
    "city": "Chillán",
    "region": "Ñuble",
    "country": "CL",
    "phone": "232740764",
    "latitude": -36.609973,
    "longitude": -72.101179,
    "hours": "<p>Lunes a Viernes: CERRADO<br>\n            Sábado: CERRADO<br>\n            Domingo: CERRADO</p>",
    "is_24hrs": false,
    "has_parking": true
  },
  {
    "id": "193",
    "name": "Farmacia 193",
    "address": "Antonio Varas N° 651 / Cauquenes",
    "city": "Puerto Montt",
    "region": "Los Lagos",
    "country": "CL",
    "phone": null,
    "latitude": -41.47247,
    "longitude": -72.9434,
    "hours": "<p>Lunes a Viernes: 09:00:00 - 22:00:00<br/>Sábado: 10:00:00 - 22:00:00<br/>Domingo: 00:00:00 - 00:00:00</p>",
    "is_24hrs": false,
    "has_parking": false
  },
  {
    "id": "679",
    "name": "Farmacia 679",
    "address": "Miraflores 8702, Renca",
    "city": "Renca",
    "region": "Región Metropolitana",
    "country": "CL",
    "phone": null,
    "latitude": -33.39943,
    "longitude": -70.75829,
    "hours": "<p>Lunes a Viernes: 08:00:00 - 21:00:00<br/>Sábado: 08:00:00 - 21:00:00<br/>Domingo: 08:30:00 - 21:00:00</p>",
    "is_24hrs": false,
    "has_parking": false
  },
  {
    "id": "682",
    "name": "Farmacia 682",
    "address": "Ochagavía 13115, San Bernardo",
    "city": "San Bernardo",
    "region": "Región Metropolitana",
    "country": "CL",
    "phone": null,
    "latitude": -33.57237728,
    "longitude": -70.70259535,
    "hours": "<p>Lunes a Viernes: 09:00:00 - 21:00:00<br/>Sábado: 09:00:00 - 21:00:00<br/>Domingo: 09:00:00 - 21:00:00</p>",
    "is_24hrs": false,
    "has_parking": false
  },
  {
    "id": "691",
    "name": "Farmacia 691",
    "address": "Barros Luco 105, San Antonio",
    "city": "San Antonio",
    "region": "Valparaíso",
    "country": "CL",
    "phone": null,
    "latitude": -33.58205,
    "longitude": -71.613318,
    "hours": "<p>Lunes a Viernes: 08:30:00 - 20:30:00<br/>Sábado: 08:30:00 - 20:30:00<br/>Domingo: 09:00:00 - 20:00:00</p>",
    "is_24hrs": false,
    "has_parking": false
  },
  {
    "id": "694",
    "name": "Farmacia 694",
    "address": "Avenida Errázuriz 629 locales 118/5, 117/4 y 117/3",
    "city": "Valparaiso",
    "region": "Valparaíso",
    "country": "CL",
    "phone": null,
    "latitude": -33.038203,
    "longitude": -71.627602,
    "hours": "<p>Lunes a Viernes: 08:00:00 - 21:30:00<br/>Sábado: 08:30:00 - 21:30:00<br/>Domingo: 09:00:00 - 21:00:00</p>",
    "is_24hrs": false,
    "has_parking": false
  },
  {
    "id": "696",
    "name": "Farmacia 696",
    "address": "Piacenza 1020",
    "city": "Las Condes",
    "region": "Región Metropolitana",
    "country": "CL",
    "phone": "2323740895",
    "latitude": -33.417511,
    "longitude": -70.55845,
    "hours": "<p>Lunes a Viernes: 08:00:00 - 21:00:00<br/>Sábado: 08:00:00 - 21:00:00<br/>Domingo: 09:00:00 - 21:00:00</p>",
    "is_24hrs": false,
    "has_parking": false
  },
  {
    "id": "699",
    "name": "Farmacia 699",
    "address": "avenida Pedro Montt 1998",
    "city": "Valparaiso",
    "region": "Región Metropolitana",
    "country": "CL",
    "phone": null,
    "latitude": -33.046341,
    "longitude": -71.616051,
    "hours": "<p>Lunes a Viernes: 08:30:00 - 21:00:00<br/>Sábado: 08:30:00 - 21:00:00<br/>Domingo: 10:00:00 - 20:00:00</p>",
    "is_24hrs": false,
    "has_parking": false
  },
  {
    "id": "701",
    "name": "Farmacia 701",
    "address": "Av. Blanca Estela 1560, Local 5 y 6",
    "city": "Concón",
    "region": "Valparaíso",
    "country": "CL",
    "phone": null,
    "latitude": -32.942299,
    "longitude": -71.533037,
    "hours": "<p>Lunes a Viernes: 09:00:00 - 21:00:00<br/>Sábado: 09:00:00 - 21:00:00<br/>Domingo: 09:00:00 - 21:00:00</p>",
    "is_24hrs": false,
    "has_parking": false
  },
  {
    "id": "702",
    "name": "Farmacia 702",
    "address": "Calle Arauco 561 local 144",
    "city": "Valdivia",
    "region": "Los Ríos",
    "country": "CL",
    "phone": null,
    "latitude": -39.816095,
    "longitude": -73.242396,
    "hours": "<p>Lunes a Viernes: 10:00:00 - 20:30:00<br/>Sábado: 10:00:00 - 20:30:00<br/>Domingo: 11:00:00 - 21:00:00</p>",
    "is_24hrs": false,
    "has_parking": false
  },
  {
    "id": "703",
    "name": "Farmacia 703",
    "address": "Avenida San Martín 604",
    "city": "Viña del Mar",
    "region": "Valparaíso",
    "country": "CL",
    "phone": null,
    "latitude": -33.014843,
    "longitude": -71.555641,
    "hours": "<p>Lunes a Viernes: 09:00:00 - 21:00:00<br/>Sábado: 09:00:00 - 22:00:00<br/>Domingo: 09:00:00 - 21:00:00</p>",
    "is_24hrs": false,
    "has_parking": false
  },
  {
    "id": "704",
    "name": "Farmacia 704",
    "address": "Avda. Undecima N°1605, 1655 y 1705 (Placilla) Local 12 y 13",
    "city": "Valparaiso",
    "region": "Valparaíso",
    "country": "CL",
    "phone": null,
    "latitude": -33.122118,
    "longitude": -71.563813,
    "hours": "<p>Lunes a Viernes: 09:00:00 - 21:00:00<br/>Sábado: 09:00:00 - 19:00:00<br/>Domingo: 00:00:00 - 00:00:00</p>",
    "is_24hrs": false,
    "has_parking": false
  },
  {
    "id": "705",
    "name": "Farmacia 705",
    "address": "Bandera 187",
    "city": "Santiago",
    "region": "Región Metropolitana",
    "country": "CL",
    "phone": null,
    "latitude": -33.440879,
    "longitude": -70.651953,
    "hours": "<p>Lunes a Viernes: 08:00:00 - 21:00:00<br/>Sábado: 08:00:00 - 21:00:00<br/>Domingo: 00:00:00 - 00:00:00</p>",
    "is_24hrs": false,
    "has_parking": false
  },
  {
    "id": "706",
    "name": "Farmacia 706",
    "address": "Paseo Ahumada 2",
    "city": "Santiago",
    "region": "Región Metropolitana",
    "country": "CL",
    "phone": null,
    "latitude": -33.443261,
    "longitude": -70.650621,
    "hours": "<p>Lunes a Viernes: 08:00:00 - 21:00:00<br/>Sábado: 08:00:00 - 21:00:00<br/>Domingo: 10:00:00 - 18:00:00</p>",
    "is_24hrs": false,
    "has_parking": false
  },
  {
    "id": "707",
    "name": "Farmacia 707",
    "address": "Huerfanos 1153",
    "city": "Santiago",
    "region": "Región Metropolitana",
    "country": "CL",
    "phone": null,
    "latitude": -33.439593,
    "longitude": -70.653055,
    "hours": "<p>Lunes a Viernes: 08:00:00 - 21:00:00<br/>Sábado: 08:00:00 - 21:00:00<br/>Domingo: 00:00:00 - 00:00:00</p>",
    "is_24hrs": false,
    "has_parking": false
  },
  {
    "id": "708",
    "name": "Farmacia 708",
    "address": "Ahumada 125",
    "city": "Santiago",
    "region": "Región Metropolitana",
    "country": "CL",
    "phone": null,
    "latitude": -33.441342,
    "longitude": -70.65084,
    "hours": "<p>Lunes a Viernes: 09:00:00 - 21:00:00<br/>Sábado: 09:00:00 - 21:00:00<br/>Domingo: 10:00:00 - 18:00:00</p>",
    "is_24hrs": false,
    "has_parking": false
  },
  {
    "id": "709",
    "name": "Farmacia 709",
    "address": "Estado 323",
    "city": "Santiago",
    "region": "Región Metropolitana",
    "country": "CL",
    "phone": null,
    "latitude": -33.439032,
    "longitude": -70.649398,
    "hours": "<p>Lunes a Viernes: 08:00:00 - 21:00:00<br/>Sábado: 10:00:00 - 20:00:00<br/>Domingo: 10:00:00 - 19:00:00</p>",
    "is_24hrs": false,
    "has_parking": false
  },
  {
    "id": "710",
    "name": "Farmacia 710",
    "address": "Ahumada 355",
    "city": "Santiago",
    "region": "Región Metropolitana",
    "country": "CL",
    "phone": null,
    "latitude": -33.438901,
    "longitude": -70.650892,
    "hours": "<p>Lunes a Viernes: 08:00:00 - 21:00:00<br/>Sábado: 08:00:00 - 21:00:00<br/>Domingo: 00:00:00 - 00:00:00</p>",
    "is_24hrs": false,
    "has_parking": false
  },
  {
    "id": "711",
    "name": "Farmacia 711",
    "address": "Huerfanos 1033",
    "city": "Santiago",
    "region": "Región Metropolitana",
    "country": "CL",
    "phone": null,
    "latitude": -33.43953834,
    "longitude": -70.65143913,
    "hours": "<p>Lunes a Viernes: 08:00:00 - 21:00:00<br/>Sábado: 09:00:00 - 20:30:00<br/>Domingo: 10:00:00 - 20:00:00</p>",
    "is_24hrs": false,
    "has_parking": false
  },
  {
    "id": "712",
    "name": "Farmacia 712",
    "address": "Avenida Colín 240",
    "city": "Talca",
    "region": "Maule",
    "country": "CL",
    "phone": null,
    "latitude": -35.446385,
    "longitude": -71.688934,
    "hours": "<p>Lunes a Viernes: 08:30:00 - 21:30:00<br/>Sábado: 08:30:00 - 21:30:00<br/>Domingo: 09:00:00 - 21:00:00</p>",
    "is_24hrs": false,
    "has_parking": false
  },
  {
    "id": "715",
    "name": "Farmacia 715",
    "address": "Libertad 825",
    "city": "Viña del Mar",
    "region": "Valparaíso",
    "country": "CL",
    "phone": null,
    "latitude": -33.01379,
    "longitude": -71.55003,
    "hours": "<p>Lunes a Viernes: 08:00:00 - 22:00:00<br/>Sábado: 09:00:00 - 22:00:00<br/>Domingo: 10:00:00 - 20:00:00</p>",
    "is_24hrs": false,
    "has_parking": false
  },
  {
    "id": "716",
    "name": "Farmacia 716",
    "address": "Avda. Bosque Norte 124",
    "city": "Las Condes",
    "region": "Región Metropolitana",
    "country": "CL",
    "phone": null,
    "latitude": -33.41611,
    "longitude": -70.600896,
    "hours": "<p>Lunes a Viernes: 09:00:00 - 21:00:00<br/>Sábado: 09:00:00 - 21:00:00<br/>Domingo: 00:00:00 - 00:00:00</p>",
    "is_24hrs": false,
    "has_parking": false
  },
  {
    "id": "717",
    "name": "Farmacia 717",
    "address": "Av. Andrés Bello 2425, piso 1- local 1121 (Mall Costanera Center)",
    "city": "Providencia",
    "region": "Región Metropolitana",
    "country": "CL",
    "phone": null,
    "latitude": -33.417776,
    "longitude": -70.607806,
    "hours": "<p>Lunes a Viernes: 08:00:00 - 21:00:00<br/>Sábado: 08:00:00 - 21:00:00<br/>Domingo: 09:00:00 - 21:00:00</p>",
    "is_24hrs": false,
    "has_parking": false
  },
  {
    "id": "719",
    "name": "Farmacia 719",
    "address": "Avda. Los Espejo 943",
    "city": "Maipú",
    "region": "Región Metropolitana",
    "country": "CL",
    "phone": null,
    "latitude": -33.52195,
    "longitude": -70.733,
    "hours": "<p>Lunes a Viernes: 10:00:00 - 21:00:00<br/>Sábado: 10:00:00 - 21:00:00<br/>Domingo: 10:00:00 - 21:00:00</p>",
    "is_24hrs": false,
    "has_parking": false
  },
  {
    "id": "720",
    "name": "Farmacia 720",
    "address": "Ruta 5 Norte, Esquina, Regimiento Arica, Coquimbo (Mall Outlet Peñuelas)",
    "city": "La Serena",
    "region": "Coquimbo",
    "country": "CL",
    "phone": null,
    "latitude": -29.94867,
    "longitude": -71.285245,
    "hours": "<p>Lunes a Viernes: 09:00:00 - 20:00:00<br/>Sábado: 09:00:00 - 20:00:00<br/>Domingo: 09:00:00 - 20:00:00</p>",
    "is_24hrs": false,
    "has_parking": false
  },
  {
    "id": "721",
    "name": "Farmacia 721",
    "address": "Av. de los Poetas 249",
    "city": "Temuco",
    "region": "La Araucanía",
    "country": "CL",
    "phone": null,
    "latitude": -38.750482,
    "longitude": -72.60356,
    "hours": "<p>Lunes a Viernes: 10:00:00 - 21:00:00<br/>Sábado: 10:00:00 - 21:00:00<br/>Domingo: 10:00:00 - 21:00:00</p>",
    "is_24hrs": false,
    "has_parking": false
  },
  {
    "id": "722",
    "name": "Farmacia 722",
    "address": "Republica 342",
    "city": "Limache",
    "region": "Valparaíso",
    "country": "CL",
    "phone": null,
    "latitude": -33.4525225035972,
    "longitude": -70.6672389343858,
    "hours": "<p>Lunes a Viernes: 09:00:00 - 21:00:00<br/>Sábado: 09:00:00 - 21:00:00<br/>Domingo: 00:00:00 - 00:00:00</p>",
    "is_24hrs": false,
    "has_parking": false
  },
  {
    "id": "723",
    "name": "Farmacia 723",
    "address": "Avenida Padre Hurtado Sur 875, Las Condes",
    "city": "Las Condes",
    "region": "Región Metropolitana",
    "country": "CL",
    "phone": "2323740778",
    "latitude": -33.415,
    "longitude": -70.5402,
    "hours": "<p>Lunes a Viernes: 08:30:00 - 21:30:00<br/>Sábado: 09:00:00 - 21:30:00<br/>Domingo: 10:00:00 - 21:30:00</p>",
    "is_24hrs": false,
    "has_parking": false
  },
  {
    "id": "724",
    "name": "Farmacia 724",
    "address": "Avenida Diego Portales 640, Local BS-1048 BS-1044 BS-1040",
    "city": "Arica",
    "region": "Arica y Parinacota",
    "country": "CL",
    "phone": null,
    "latitude": -18.48,
    "longitude": -70.31,
    "hours": "<p>Lunes a Viernes: 09:30:00 - 21:30:00<br/>Sábado: 09:30:00 - 21:30:00<br/>Domingo: 09:00:00 - 21:30:00</p>",
    "is_24hrs": false,
    "has_parking": false
  },
  {
    "id": "726",
    "name": "Farmacia 726",
    "address": "Los Carrera 301, Bio Bio, Local BE-114 BE-116 BE-118",
    "city": "Concepción",
    "region": "Biobío",
    "country": "CL",
    "phone": null,
    "latitude": -36.831082,
    "longitude": -73.063811,
    "hours": "<p>Lunes a Viernes: 10:00:00 - 21:30:00<br/>Sábado: 10:00:00 - 21:30:00<br/>Domingo: 10:00:00 - 21:30:00</p>",
    "is_24hrs": false,
    "has_parking": false
  },
  {
    "id": "727",
    "name": "Farmacia 727",
    "address": "Calle Valdivia 440, Local BH-140 BH-144 BH-148 BH-152",
    "city": "Los Ángeles",
    "region": "Biobío",
    "country": "CL",
    "phone": null,
    "latitude": -37.46817,
    "longitude": -72.3528,
    "hours": "<p>Lunes a Viernes: 09:00:00 - 21:00:00<br/>Sábado: 09:00:00 - 21:00:00<br/>Domingo: 09:00:00 - 21:00:00</p>",
    "is_24hrs": false,
    "has_parking": false
  },
  {
    "id": "729",
    "name": "Farmacia 729",
    "address": "Avenida Jorge Alessandri #20.040, Local B-2063 B-2065",
    "city": "San Bernardo",
    "region": "Región Metropolitana",
    "country": "CL",
    "phone": null,
    "latitude": -33.6326472,
    "longitude": -70.7095782,
    "hours": "<p>Lunes a Viernes: 09:00:00 - 20:30:00<br/>Sábado: 09:00:00 - 21:00:00<br/>Domingo: 10:00:00 - 20:00:00</p>",
    "is_24hrs": false,
    "has_parking": false
  },
  {
    "id": "731",
    "name": "Farmacia 731",
    "address": "Avenida Américo Vespucio 1737, local BE-1133 (Exterior Mall Plaza Norte)",
    "city": "Huechuraba",
    "region": "Región Metropolitana",
    "country": "CL",
    "phone": null,
    "latitude": -33.36466092530019,
    "longitude": -70.67830514767054,
    "hours": "<p>Lunes a Viernes: 09:00:00 - 20:30:00<br/>Sábado: 09:00:00 - 20:30:00<br/>Domingo: 10:00:00 - 20:00:00</p>",
    "is_24hrs": false,
    "has_parking": false
  },
  {
    "id": "732",
    "name": "Farmacia 732",
    "address": "Avenida Larraín 5862, Local BF-129 BF-133",
    "city": "La Reina",
    "region": "Región Metropolitana",
    "country": "CL",
    "phone": null,
    "latitude": -33.4522910848819,
    "longitude": -70.56991999184488,
    "hours": "<p>Lunes a Viernes: 09:00:00 - 21:00:00<br/>Sábado: 09:00:00 - 21:00:00<br/>Domingo: 10:30:00 - 20:30:00</p>",
    "is_24hrs": false,
    "has_parking": false
  },
  {
    "id": "733",
    "name": "Farmacia 733",
    "address": "Avenida Vicuña Mackenna Oriente 7110, Local D-118 D-119 D-120",
    "city": "La Florida",
    "region": "Región Metropolitana",
    "country": "CL",
    "phone": null,
    "latitude": -33.5168394,
    "longitude": -70.5969193,
    "hours": "<p>Lunes a Viernes: 09:00:00 - 20:30:00<br/>Sábado: 09:00:00 - 20:30:00<br/>Domingo: 11:00:00 - 20:00:00</p>",
    "is_24hrs": false,
    "has_parking": false
  },
  {
    "id": "734",
    "name": "Farmacia 734",
    "address": "Avenida Edmundo Pérez Zujovic N°5.030, Local 4 y 5",
    "city": "Antofagasta",
    "region": "Antofagasta",
    "country": "CL",
    "phone": null,
    "latitude": -23.59051,
    "longitude": -70.39612,
    "hours": "<p>Lunes a Viernes: 09:00:00 - 21:00:00<br/>Sábado: 09:00:00 - 21:00:00<br/>Domingo: 10:00:00 - 20:00:00</p>",
    "is_24hrs": false,
    "has_parking": false
  },
  {
    "id": "737",
    "name": "Farmacia 737",
    "address": "Avenida Vicuña Mackenna Oriente 7110, Local  E-9109 E-9112 E-9116",
    "city": "La Florida",
    "region": "Región Metropolitana",
    "country": "CL",
    "phone": null,
    "latitude": -33.516893,
    "longitude": -70.597037411,
    "hours": "<p>Lunes a Viernes: 08:00:00 - 21:00:00<br/>Sábado: 08:00:00 - 21:00:00<br/>Domingo: 00:00:00 - 00:00:00</p>",
    "is_24hrs": false,
    "has_parking": false
  },
  {
    "id": "743",
    "name": "Farmacia 743",
    "address": "Calle Ramón Freire 594",
    "city": "Osorno",
    "region": "Los Lagos",
    "country": "CL",
    "phone": null,
    "latitude": -40.57305,
    "longitude": -73.13139,
    "hours": "<p>Lunes a Viernes: 09:00:00 - 21:00:00<br/>Sábado: 09:00:00 - 21:00:00<br/>Domingo: 10:00:00 - 20:00:00</p>",
    "is_24hrs": false,
    "has_parking": false
  },
  {
    "id": "744",
    "name": "Farmacia 744",
    "address": "Av. Pablo Neruda 01725, Local 3",
    "city": "Temuco",
    "region": "La Araucanía",
    "country": "CL",
    "phone": null,
    "latitude": -38.738406,
    "longitude": -72.627202,
    "hours": "<p>Lunes a Viernes: 08:00:00 - 21:00:00<br/>Sábado: 08:00:00 - 21:00:00<br/>Domingo: 10:00:00 - 20:00:00</p>",
    "is_24hrs": false,
    "has_parking": false
  },
  {
    "id": "748",
    "name": "Farmacia 748",
    "address": "Vitacura 3619, Vitacura",
    "city": "Vitacura",
    "region": "Región Metropolitana",
    "country": "CL",
    "phone": null,
    "latitude": -33.40315172,
    "longitude": -70.59492747,
    "hours": "<p>Lunes a Viernes: 00:00:00 - 00:00:00<br/>Sábado: 00:00:00 - 00:00:00<br/>Domingo: 00:00:00 - 00:00:00</p>",
    "is_24hrs": false,
    "has_parking": false
  },
  {
    "id": "749",
    "name": "Farmacia 749",
    "address": "Antonio Varas N°665",
    "city": "Puerto Montt",
    "region": "Los Lagos",
    "country": "CL",
    "phone": null,
    "latitude": -41.47283,
    "longitude": -72.94444,
    "hours": "<p>Lunes a Viernes: 09:00:00 - 21:00:00<br/>Sábado: 09:00:00 - 21:00:00<br/>Domingo: 10:00:00 - 20:00:00</p>",
    "is_24hrs": false,
    "has_parking": false
  },
  {
    "id": "751",
    "name": "Farmacia 751",
    "address": "Avenida Vitacura 8400",
    "city": "Vitacura",
    "region": "Región Metropolitana",
    "country": "CL",
    "phone": null,
    "latitude": -33.38434,
    "longitude": -70.554719,
    "hours": "<p>Lunes a Viernes: 08:30:00 - 21:00:00<br/>Sábado: 08:30:00 - 21:00:00<br/>Domingo: 09:00:00 - 21:00:00</p>",
    "is_24hrs": false,
    "has_parking": false
  },
  {
    "id": "754",
    "name": "Farmacia 754",
    "address": "Balmaceda 526, Futrono",
    "city": "Futrono",
    "region": "Los Lagos",
    "country": "CL",
    "phone": null,
    "latitude": -40.131502,
    "longitude": -72.3860178,
    "hours": "<p>Lunes a Viernes: 08:00:00 - 21:00:00<br/>Sábado: 08:00:00 - 21:00:00<br/>Domingo: 00:00:00 - 00:00:00</p>",
    "is_24hrs": false,
    "has_parking": false
  },
  {
    "id": "755",
    "name": "Farmacia 755",
    "address": "Nueva Costanera 3803, Vitacura",
    "city": "Vitacura",
    "region": "Región Metropolitana",
    "country": "CL",
    "phone": null,
    "latitude": -33.39971431,
    "longitude": -70.597667808,
    "hours": "<p>Lunes a Viernes: 09:00:00 - 21:00:00<br/>Sábado: 09:00:00 - 21:00:00<br/>Domingo: 10:00:00 - 21:00:00</p>",
    "is_24hrs": false,
    "has_parking": false
  },
  {
    "id": "759",
    "name": "Farmacia 759",
    "address": "Ricardo Lyon 3154, Ñuñoa",
    "city": "Ñuñoa",
    "region": "Región Metropolitana",
    "country": "CL",
    "phone": null,
    "latitude": -33.450041848,
    "longitude": -70.6021,
    "hours": "<p>Lunes a Viernes: 08:00:00 - 21:00:00<br/>Sábado: 08:00:00 - 21:00:00<br/>Domingo: 00:00:00 - 00:00:00</p>",
    "is_24hrs": false,
    "has_parking": false
  },
  {
    "id": "769",
    "name": "Farmacia 769",
    "address": "Avda. Uruguay 375",
    "city": "Valparaiso",
    "region": "Valparaíso",
    "country": "CL",
    "phone": null,
    "latitude": -33.04689,
    "longitude": -71.60802,
    "hours": "<p>Lunes a Viernes: 08:00:00 - 21:00:00<br/>Sábado: 08:00:00 - 21:00:00<br/>Domingo: 09:00:00 - 20:00:00</p>",
    "is_24hrs": false,
    "has_parking": false
  }
]